station_code,station_name,state,zone,address,geometry_type,longitude,latitude,coord_invalid,code_length,name_word_count,is_junction,is_road_station,code_length_outlier,name_word_count_outlier
BDHL,Badhal,Rajasthan,NWR,"Kishangarh Renwal, Rajasthan",Point,75.4516454,27.2520587,0,4,1,0,0,0,0
XX-BECE,Xx-Bece,Unknown,Unknown,Unknown,Unknown,,,1,7,1,0,0,1,0
XX-BSPY,Xx-Bspy,Unknown,Unknown,Unknown,Unknown,,,1,7,1,0,0,1,0
YY-BPLC,Yy-Bplc,Unknown,Unknown,Unknown,Unknown,,,1,7,1,0,0,1,0
KHH,Kichha,Uttar Pradesh,NER,"Kichha, Uttar Pradesh",Point,79.519746,28.913427,0,3,1,0,0,0,0
SRKN,Sherekan,Rajasthan,NWR,"Mdr 89, Rajasthan",Point,74.43499088287354,29.55519806064484,0,4,1,0,0,0,0
BKKA,Bhukarka,Rajasthan,NWR,"Bhukarka, Rajasthan",Point,74.75103096105158,29.238227312503696,0,4,1,0,0,0,0
NHR,Nohar,Rajasthan,NWR,"State Highway 36, Rajasthan",Point,74.77362781763077,29.192562738768984,0,3,1,0,0,0,0
PRGD,Perungudi,Tamil Nadu,SR,"Chennai, Tamil Nadu",Point,80.231363,12.975217,0,4,1,0,0,0,0
KNNA,Khinaniyan,Haryana,NWR,"State Highway 23, Haryana",Point,74.7179570607841,29.345637263205944,0,4,1,0,0,0,0
JKR,Jaulkhera,Unknown,Unknown,Unknown,Point,78.216684,21.838466,0,3,1,0,0,0,0
BYS,Barsali,Unknown,Unknown,Unknown,Point,78.03136099999999,21.909813,0,3,1,0,0,0,0
GW,Girwar,Unknown,Unknown,Unknown,Point,78.936311,23.838186,0,2,1,0,0,0,0
DGD,Dangidhar,Unknown,Unknown,Unknown,Point,79.019912,23.871771000000003,0,3,1,0,0,0,0
DOD,Dhodhar,Madhya Pradesh,WR,"Dhodar, Madhya Pradesh",Point,75.10354600000001,23.770741,0,3,1,0,0,0,0
GAJ,Ganeshganj,Unknown,Unknown,Unknown,Point,79.074633,23.895862,0,3,1,0,0,0,0
JNM,Jayanagar Majilpur Halt,West Bengal,ER,"Jaynagar, West Bengal",Point,88.415324,22.168635,0,3,3,0,0,0,0
NSD,Nasirabad,Rajasthan,NWR,"Nasirabad, Rajasthan",Point,74.71699100000001,26.29446,0,3,1,0,0,0,0
PHA,Patharia,Unknown,Unknown,Unknown,Point,79.192899,23.905726,0,3,1,0,0,0,0
NZB,Nizamabad,Andhra Pradesh,SCR,"Nizamabad, Andhra Pradesh",Point,78.103238,18.679165,0,3,1,0,0,0,0
RJO,Rajendra Pul,Unknown,Unknown,Unknown,Point,86.01054599999999,25.387447,0,3,2,0,0,0,0
ADT,Aduturai,Tamil Nadu,SR,"Aduthurai, Tamil Nadu",Point,79.478668,11.009165,0,3,1,0,0,0,0
KMU,Kumbakonam,Tamil Nadu,SR,"Kumbakonam, Tamil Nadu",Point,79.388644,10.952962,0,3,1,0,0,0,0
MNM,Manamadurai Jn,Tamil Nadu,SR,"Sivaganga, Tamil Nadu",Point,78.45351,9.681539,0,3,2,1,0,0,0
GKP,Gorakhpur Jn,Unknown,Unknown,Unknown,Point,83.381499,26.759311,0,3,2,1,0,0,0
BJUP,Bjup,Unknown,Unknown,Unknown,Unknown,,,1,4,1,0,0,0,0
VRM,Varnama,Unknown,Unknown,Unknown,Point,73.16928300000001,22.184274,0,3,1,0,0,0,0
GKC,Gorakhpur Cant,Unknown,Unknown,Unknown,Point,83.416821,26.750649,0,3,2,0,0,0,0
ITA,Itola,Unknown,Unknown,Unknown,Point,73.156746,22.149889,0,3,1,0,0,0,0
CIKA,Cika,Unknown,Unknown,Unknown,Unknown,,,1,4,1,0,0,0,0
XX-CPHO,Xx-Cpho,Unknown,Unknown,Unknown,Unknown,,,1,7,1,0,0,1,0
BTU,Baraut,Uttar Pradesh,NR,"Baraut, Uttar Pradesh",Point,77.273006,29.09692,0,3,1,0,0,0,0
MOGA,Moga,Punjab,NR,"Moga, Punjab",Point,75.16846699999999,30.817296,0,4,1,0,0,0,0
SIOB,Samakhiali Jn,Unknown,Unknown,Unknown,Point,70.503394,23.309819,0,4,2,1,0,0,0
LLHW,Llhw,Unknown,Unknown,Unknown,Unknown,,,1,4,1,0,0,0,0
RDK,Rasheedpura Khori,Rajasthan,NWR,"Mdr 87, Rajasthan",Point,75.087121,27.713786,0,3,2,0,0,0,0
PVD,Peddavadiapudi,Unknown,Unknown,Unknown,Point,80.612645,16.414205000000003,0,3,1,0,0,0,0
YLM,Ellamanchili,Unknown,Unknown,Unknown,Point,82.85262,17.553652000000003,0,3,1,0,0,0,0
CHPT,Chatrappatti,Unknown,Unknown,Unknown,Point,77.655113,10.476971,0,4,1,0,0,0,0
JLD,Jarwal Road,Unknown,Unknown,Unknown,Point,81.540406,27.120389,0,3,2,0,1,0,0
BRJN,Brajrajnagar,Unknown,Unknown,Unknown,Point,83.923653,21.822718,0,4,1,0,0,0,0
CLJ,Colonelganj,Unknown,Unknown,Unknown,Point,81.69417800000001,27.137698,0,3,1,0,0,0,0
KTHL,Kathola,Unknown,Unknown,Unknown,Point,81.8556626477,27.1465555756,0,4,1,0,0,0,0
MND,Munderwa,Unknown,Unknown,Unknown,Point,82.903373,26.776435,0,3,1,0,0,0,0
SNSI,Sainagar Shirdi,Maharashtra,CR,"Near New Bus Stand Shirdi Sainagar, Maharashtra",Point,74.4806877,19.7807923,0,4,2,0,0,0,0
DLJ,Dhola Jn,Gujarat,WR,"Dhola, Gujarat",Point,71.738273,21.822549,0,3,2,1,0,0,0
PGW,Phagwara Jn,Unknown,Unknown,Unknown,Point,75.7655019775,31.2175557498,0,3,2,1,0,0,0
YY-BINP,Yy-Binp,Unknown,Unknown,Unknown,Unknown,,,1,7,1,0,0,1,0
JUP,Jhunpa,Rajasthan,?,"Nh 65, Rajasthan",Point,75.521553,28.777449,0,3,1,0,0,0,0
XX-JSGB,Xx-Jsgb,Unknown,Unknown,Unknown,Unknown,,,1,7,1,0,0,1,0
JSG,Jharsuguda Jn,Unknown,Unknown,Unknown,Point,84.017427,21.862274,0,3,2,1,0,0,0
KYW,Karchhue,Unknown,Unknown,Unknown,Point,84.20715351199999,26.2311244405,0,3,1,0,0,0,0
MHRN,Mahendranath,Unknown,Unknown,Unknown,Point,84.509909,26.000739,0,4,1,0,0,0,0
TKVR,Tappa Khajuriay,Unknown,Unknown,Unknown,Point,84.688889,25.807401,0,4,2,0,0,0,0
DPI,Doddampatti,Unknown,Unknown,Unknown,Point,78.42225009,12.18134581,0,3,1,0,0,0,0
SREE,Sree,Unknown,Unknown,Unknown,Unknown,,,1,4,1,0,0,0,0
AQG,Ashapura Gomat,Rajasthan,NWR,"National Highway 15, Rajasthan",Point,71.892665,26.950232,0,3,2,0,0,0,0
NEA,Neykkarapatti,Unknown,Unknown,Unknown,Point,78.09669699999999,11.612765,0,3,1,0,0,0,0
GRL,Goraul,Unknown,Unknown,Unknown,Point,85.318477,25.931049,0,3,1,0,0,0,0
DKJC,Dkjc,Unknown,Unknown,Unknown,Unknown,,,1,4,1,0,0,0,0
KHI,Kurhani,Unknown,Unknown,Unknown,Point,85.339288,25.979631,0,3,1,0,0,0,0
VNJ,Tiruppur Vanjipalayam,Unknown,Unknown,Unknown,Point,77.26580200000001,11.117791,0,3,2,0,0,0,0
CBF,Coimbatore North,Unknown,Unknown,Unknown,Point,76.954304,11.019937,0,3,2,0,0,0,0
UMB,Ambala Cant Jn,Unknown,Unknown,Unknown,Point,76.826966,30.338918,0,3,3,1,0,0,0
SRO,Sirathu,Unknown,Unknown,Unknown,Point,81.31786,25.650642,0,3,1,0,0,0,0
SJT,Shujaatpur,Unknown,Unknown,Unknown,Point,81.401934,25.605607000000003,0,3,1,0,0,0,0
BDNP,Bidanpur,Unknown,Unknown,Unknown,Point,81.44201699999999,25.585017,0,4,1,0,0,0,0
MTPC,Motipura Chauki,Rajasthan,WCR,"Motipura, Rajasthan",Point,77.04829951629999,24.6093382288,0,4,2,0,0,0,0
HTZ,Hathidah Jn,Unknown,Unknown,Unknown,Point,85.987826,25.367027,0,3,2,1,0,0,0
TSKG,Tinsukia Goods,Unknown,Unknown,Unknown,Unknown,,,1,4,2,0,0,0,0
DDNI,Dudhnoi,Assam,NFR,"Dudhnoi Railway Station, Assam",Point,90.76188,26.001459,0,4,1,0,0,0,0
RDE,Rundhi,Unknown,Unknown,Unknown,Point,77.350991,28.067751,0,3,1,0,0,0,0
IJ,Itaunja,Uttar Pradesh,NER,"Itaunja, Uttar Pradesh",Point,80.89123400000001,27.081067,0,2,1,0,0,0,0
RMX,Ramsar,Rajasthan,NWR,"Barmer, Rajasthan",Point,70.866078,25.722252,0,3,1,0,0,0,0
PBE,Pilibhit Jn,Uttar Pradesh,NER,"Pilibhit, Uttar Pradesh",Point,79.813946,28.614978,0,3,2,1,0,0,0
RMB,Rampura Beri,Rajasthan,NWR,"Rampura Bhal, Rajasthan",Point,75.64547982849999,28.5301320576,0,3,2,0,0,0,0
MGS,Mughal Sarai Jn,Unknown,Unknown,Unknown,Point,83.11925000000001,25.278149,0,3,3,1,0,0,0
RSWT,Ramgarh Shekhawati,Rajasthan,NWR,"Ramgarh, Rajasthan",Point,74.993046,28.169397,0,4,2,0,0,0,0
BKNA,Bakaina Halt,Unknown,Unknown,Unknown,Point,78.27473099999999,29.0358,0,4,2,0,0,0,0
HBD,Hoshangabad,Unknown,Unknown,Unknown,Point,77.715594,22.75274,0,3,1,0,0,0,0
ANA,Aslana,Unknown,Unknown,Unknown,Point,79.319493,23.860522,0,3,1,0,0,0,0
BNI,Budni,Unknown,Unknown,Unknown,Point,77.6812826,22.7871143,0,3,1,0,0,0,0
YY-IDHW,Yy-Idhw,Unknown,Unknown,Unknown,Unknown,,,1,7,1,0,0,1,0
DMGN,Dhamalgaon,Assam,NFR,"A T Rd, Assam",Point,94.856569,27.325566,0,4,1,0,0,0,0
LKPL,Lakdikapul,Andhra Pradesh,SCR,"Hyderabad, Andhra Pradesh",Point,78.463527,17.404048000000003,0,4,1,0,0,0,0
BRUD,Barud,Madhya Pradesh,WCR,"Khandwa, Madhya Pradesh",Point,76.814085,22.052142,0,4,1,0,0,0,0
DVL,Devlali,Unknown,Unknown,Unknown,Point,73.83729,19.897509,0,3,1,0,0,0,0
JRTR,Jurtara,Unknown,Unknown,Unknown,Point,79.76127199999999,22.253005,0,4,1,0,0,0,0
REWA,Rewa,Madhya Pradesh,WCR,"Rewa, Madhya Pradesh",Point,81.250615,24.537122,0,4,1,0,0,0,0
DOK,Dholka,Gujarat,WR,"Bagodara Dholka, Gujarat",Point,72.433842,22.731982,0,3,1,0,0,0,0
NDR,Nandesari,Unknown,Unknown,Unknown,Point,73.0952734283,22.418331637,0,3,1,0,0,0,0
MYG,Miyagam Karjan,Unknown,Unknown,Unknown,Point,73.120353,22.050722,0,3,2,0,0,0,0
MBA,Mahoba,Uttar Pradesh,NCR,"Junction Point - Khajuraho, Uttar Pradesh",Point,79.849079,25.306914,0,3,1,0,0,0,0
JGZ,Jamgaon,Madhya Pradesh,SECR,"Bamhani, Madhya Pradesh",Point,80.198945,22.418426,0,3,1,0,0,0,0
BHKH,Baghoi Kusa,Unknown,Unknown,Unknown,Point,84.46243313289999,24.8399006513,0,4,2,0,0,0,0
NOLI,Noli,Uttar Pradesh,NR,"Ghaziabad, Uttar Pradesh",Point,77.31077099999999,28.746571,0,4,1,0,0,0,0
SUJR,Sujra,Uttar Pradesh,NR,"State Highway 57, Uttar Pradesh",Point,77.26134099999999,29.012729,0,4,1,0,0,0,0
AMOD,Amod,Gujarat,WR,"Amod, Gujarat",Point,72.86546467803419,21.99079116739973,0,4,1,0,0,0,0
LKD,Lakodara,Unknown,Unknown,Unknown,Point,73.09899399999999,21.991872,0,3,1,0,0,0,0
VKL,Vankal,Gujarat,WR,"Sh 166, Gujarat",Point,73.23136643506587,21.43967393177265,0,3,1,0,0,0,0
BY,Byculla,Maharashtra,CR,"Mumbai, Maharashtra",Point,72.833211,18.97695,0,2,1,0,0,0,0
BNR,Bhagwanpur,Unknown,Unknown,Unknown,Point,85.30109021000001,25.85831672,0,3,1,0,0,0,0
KTY,Kotturu,Tamil Nadu,SWR,"Kothur Rd, Tamil Nadu",Point,76.21354088187218,14.826788325296278,0,3,1,0,0,0,0
BLMR,Bhalukmara,Assam,NFR,"Bhalukmara, Assam",Point,94.143709,26.685532,0,4,1,0,0,0,0
ANJ,Anjangaon,Maharashtra,CR,"Anjangaon, Maharashtra",Point,77.31896504759789,21.163199753077336,0,3,1,0,0,0,0
DEB,Debagram,West Bengal,ER,"Debagram, West Bengal",Point,88.306807,23.685277,0,3,1,0,0,0,0
ELP,Achalpur,Maharashtra,CR,"Dist. Amravati, Maharashtra",Point,77.51926277764142,21.27760302246017,0,3,1,0,0,0,0
BTY,Bethuadahari,West Bengal,ER,"Bethuadahari, West Bengal",Point,88.384597,23.610275,0,3,1,0,0,0,0
WARUD,Warud,Maharashtra,CR,"Wardha, Maharashtra",Point,78.65141943097115,20.74690547756532,0,5,1,0,0,0,0
BVAC,Bvac,Unknown,Unknown,Unknown,Unknown,,,1,4,1,0,0,0,0
BVBC,Bvbc,Unknown,Unknown,Unknown,Unknown,,,1,4,1,0,0,0,0
VLKN,Velankanni,Tamil Nadu,?,"Velankanni, Tamil Nadu",Point,79.84618068672717,10.686877168293025,0,4,1,0,0,0,0
PCU,Putlacheruvu,Andhra Pradesh,SCR,"Putlacheruvu, Andhra Pradesh",Point,81.112395,16.484823,0,3,1,0,0,0,0
BNPT,Bennipatti Pirapur,Unknown,Unknown,Unknown,Point,85.3090478906,25.892949366,0,4,2,0,0,0,0
JM,Jalamb Jn,Unknown,Unknown,Unknown,Point,76.573236,20.813007,0,2,2,1,0,0,0
GPJ,Gorapur,Andhra Pradesh,ECOR,"Jeypore Rd, Andhra Pradesh",Point,82.79406,18.346936,0,3,1,0,0,0,0
ABEO,Pattaravakkam,,SR,,Point,80.16618146561086,13.114499981582952,0,4,1,0,0,0,0
SEG,Shegaon,Unknown,Unknown,Unknown,Point,76.690331,20.801724,0,3,1,0,0,0,0
GDU,Gudru Halt,Madhya Pradesh,SECR,"Lamta, Madhya Pradesh",Point,80.1163395764,22.2718946035,0,3,2,0,0,0,0
BGNA,Balgona,West Bengal,ER,"Balgona, West Bengal",Point,87.95045644976199,23.458049719226736,0,4,1,0,0,0,0
KLNP,Kalinarayanpur,West Bengal,ER,"Ranaghat-Bagula Bypass, West Bengal",Point,88.573216,23.206506,0,4,1,0,0,0,0
NGZ,S K Nagjihari,Unknown,Unknown,Unknown,Point,76.755353,20.761641,0,3,3,0,0,0,0
PS,Paras,Unknown,Unknown,Unknown,Point,76.815865,20.724519,0,2,1,0,0,0,0
BRDB,Barda,West Bengal,SER,"Sutahata, West Bengal",Point,88.08753041,22.15295838,0,4,1,0,0,0,0
GAO,Gaigaon,Unknown,Unknown,Unknown,Point,76.890093,20.720684,0,3,1,0,0,0,0
RRL,Rewral,Unknown,Unknown,Unknown,Point,79.468096,21.261121,0,3,1,0,0,0,0
KHAT,Khat,Unknown,Unknown,Unknown,Point,79.550792,21.242242,0,4,1,0,0,0,0
BRD,Bhandara Road,Unknown,Unknown,Unknown,Point,79.64752299999999,21.238512,0,3,2,0,1,0,0
KOKA,Koka,Unknown,Unknown,Unknown,Point,79.71240900000001,21.263021,0,4,1,0,0,0,0
DAO,Daghora,Unknown,Unknown,Unknown,Point,83.678086,21.857535,0,3,1,0,0,0,0
HGR,Hemagiri,Unknown,Unknown,Unknown,Point,83.742815,21.876504,0,3,1,0,0,0,0
NIR,Nainpur Junction,Madhya Pradesh,SECR,"Nainpur, Madhya Pradesh",Point,80.108853,22.425676,0,3,2,1,0,0,0
NCH,Nakachari,Assam,NFR,"Mariani, Assam",Point,94.3939129431,26.7081333353,0,3,1,0,0,0,0
APDJ,Alipur Duar Jn,West Bengal,NFR,"03564-255091, West Bengal",Point,89.534048,26.523279,0,4,3,1,0,0,0
BRE,Bharwari,Unknown,Unknown,Unknown,Point,81.4918665,25.5591917,0,3,1,0,0,0,0
JTK,Jhitkia,West Bengal,NFR,"National Highway 34, West Bengal",Point,88.05297200000001,25.626133,0,3,1,0,0,0,0
MNJ,Manoharganj,Unknown,Unknown,Unknown,Point,81.55907499999999,25.524992,0,3,1,0,0,0,0
SYWN,Saiyid Sarawan,Unknown,Unknown,Unknown,Point,81.613788,25.494982,0,4,2,0,0,0,0
MRE,Manauri,Unknown,Unknown,Unknown,Point,81.662491,25.470171,0,3,1,0,0,0,0
BMU,Bamhrauli,Unknown,Unknown,Unknown,Point,81.741641,25.44494,0,3,1,0,0,0,0
SFG,Subedarganj,Unknown,Unknown,Unknown,Point,81.789897,25.439879,0,3,1,0,0,0,0
KLX,Kolakalur,Unknown,Unknown,Unknown,Point,80.627521,16.295185999999998,0,3,1,0,0,0,0
CLVR,Chiluvur,Unknown,Unknown,Unknown,Point,80.61690800000001,16.379558,0,4,1,0,0,0,0
KVR,Kovvur,Unknown,Unknown,Unknown,Point,81.726495,17.007084,0,3,1,0,0,0,0
GVN,Godavari,Unknown,Unknown,Unknown,Point,81.77083,17.007707,0,3,1,0,0,0,0
KJKD,Kanjikode,Unknown,Unknown,Unknown,Point,76.75531600000001,10.800919,0,4,1,0,0,0,0
SNKR,Sanka,West Bengal,SER,"Garh Dhrubeswar, West Bengal",Point,86.616164,23.52693,0,4,1,0,0,0,0
VNK,Binaiki,Madhya Pradesh,SECR,"Binaiki Railway Station, Madhya Pradesh",Point,79.902424,22.72003,0,3,1,0,0,0,0
GCN,Gocharan,West Bengal,ER,"Gocharan, West Bengal",Point,88.45836999999999,22.277738,0,3,1,0,0,0,0
SEY,Seoni,Madhya Pradesh,SECR,"Seoni, Madhya Pradesh",Point,79.545769,22.075431,0,3,1,0,0,0,0
SDMD,Sudamdih,West Bengal,SER,"Jairampur More To Baliapur, West Bengal",Point,86.44032,23.654478,0,4,1,0,0,0,0
PCLS,Pcls,Unknown,Unknown,Unknown,Unknown,,,1,4,1,0,0,0,0
BJU,Barauni Jn,Unknown,Unknown,Unknown,Point,85.988748,25.461768000000003,0,3,2,1,0,0,0
DMO,Damoh,Unknown,Unknown,Unknown,Point,79.432246,23.836693,0,3,1,0,0,0,0
ADD,Adas Road,Unknown,Unknown,Unknown,Point,73.0346944543,22.486628078200003,0,3,2,0,1,0,0
CLC,Chalala,Gujarat,WR,"Chalala, Gujarat",Point,71.16224249999999,21.4155588,0,3,1,0,0,0,0
RNO,Ranoli,Unknown,Unknown,Unknown,Point,73.1122662115,22.4052520954,0,3,1,0,0,0,0
HP,Haripur,Rajasthan,NWR,"Pali, Rajasthan",Point,74.024928,26.012397,0,2,1,0,0,0,0
KUGT,Kumarghat,Tripura,NFR,"Kumarghat, Tripura",Point,92.0348331158,24.1506303119,0,4,1,0,0,0,0
AWB,Aurangabad,Maharashtra,SCR,"Aurangabad, Maharashtra",Point,75.31064599999999,19.859276,0,3,1,0,0,0,0
BNL,Bevinahalu,Andhra Pradesh,SCR,"Rayalaseema Region, Andhra Pradesh",Point,77.21298975,15.16697376,0,3,1,0,0,0,0
VMC,Vmc,Unknown,Unknown,Unknown,Unknown,,,1,3,1,0,0,0,0
SMNH,Somnath,Gujarat,WR,"Somnath, Gujarat",Point,70.408254,20.896132,0,4,1,0,0,0,0
CUPJ,Cuddalore Port,Tamil Nadu,SR,"Cuddalore Township, Tamil Nadu",Point,79.766287,11.715119,0,4,2,0,0,0,0
PLJ,Palej,Unknown,Unknown,Unknown,Point,73.072387,21.921578,0,3,1,0,0,0,0
GOLE,Gole,Rajasthan,NWR,"National Highway 112, Rajasthan",Point,72.00004,25.891938,0,4,1,0,0,0,0
BDX,Bdx,Unknown,Unknown,Unknown,Unknown,,,1,3,1,0,0,0,0
TRO,Tirora,Unknown,Unknown,Unknown,Point,79.91803499999999,21.415039,0,3,1,0,0,0,0
JMG,Jamga,Unknown,Unknown,Unknown,Point,83.564842,21.874971,0,3,1,0,0,0,0
JMSY,Jmsy,Unknown,Unknown,Unknown,Unknown,,,1,4,1,0,0,0,0
AHLR,Ahalyapur,Unknown,Unknown,Unknown,Point,83.824844,26.468381,0,4,1,0,0,0,0
TEL,Tenali Jn,Unknown,Unknown,Unknown,Point,80.640413,16.242409000000002,0,3,2,1,0,0,0
TAT,Tummanamgutta,Andhra Pradesh,SCR,"Chennai - Anantpur Rd, Andhra Pradesh",Point,78.37926300000001,13.707414,0,3,1,0,0,0,0
CU,Chagallu,Unknown,Unknown,Unknown,Point,81.690558,16.965076999999997,0,2,1,0,0,0,0
PSDA,Pasivedala,Unknown,Unknown,Unknown,Point,81.700939,16.99331,0,4,1,0,0,0,0
MBGA,Marwar Bagra,Rajasthan,NWR,"Sh 31, Rajasthan",Point,72.59376099999999,25.208689,0,4,2,0,0,0,0
JNE,Janiyana,Rajasthan,NWR,"State Highway 68, Rajasthan",Point,72.336284,25.827638,0,3,1,0,0,0,0
SMR,Samdhari Jn,Rajasthan,NWR,"Barmer, Rajasthan",Point,72.57300699999999,25.837202,0,3,2,1,0,0,0
SUT,Sutlana,Rajasthan,NWR,"Dundara, Rajasthan",Point,72.951414,25.970783,0,3,1,0,0,0,0
PBR,Porbandar,Gujarat,WR,"Porbandar, Gujarat",Point,69.615506,21.643598,0,3,1,0,0,0,0
CKVD,Chikkandawadi,Karnataka,SWR,"Chikkandawadi, Karnataka",Point,76.2025684888,14.1379202737,0,4,1,0,0,0,0
BHG,Bhaton Ki Gali,Rajasthan,NWR,"Chomun, Rajasthan",Point,75.712919,27.105646,0,3,3,0,0,0,0
HMO,Hanumangarh Town,Rajasthan,NWR,"Hanumangarh, Rajasthan",Point,74.33120188303292,29.57422054549568,0,3,2,0,0,0,0
SANR,Sardarnagar,Unknown,Unknown,Unknown,Point,83.494054,26.700859,0,4,1,0,0,0,0
GRD,Giridih,Jharkhand,ER,"Giridih, Jharkhand",Point,86.3146452,24.1822559,0,3,1,0,0,0,0
CC,Chauri Chaura,Unknown,Unknown,Unknown,Point,83.545894,26.673882,0,2,2,0,0,0,0
KMPT,Komatipalli,Unknown,Unknown,Unknown,Point,79.5158922174,18.023547297,0,4,1,0,0,0,0
HSP,Hasanparthi Rd,Unknown,Unknown,Unknown,Point,79.50184999999999,18.078262,0,3,2,0,0,0,0
GGY,Gagariya,Rajasthan,NWR,"State Highway 40, Rajasthan",Point,70.734877,25.741083,0,3,1,0,0,0,0
NNPR,Nonapar,Unknown,Unknown,Unknown,Point,83.969786,26.353209,0,4,1,0,0,0,0
MW,Mairwa,Unknown,Unknown,Unknown,Point,84.151979,26.240309,0,2,1,0,0,0,0
KUY,Tiruppur Kulipalayam,Unknown,Unknown,Unknown,Point,77.3893135876,11.1440279246,0,3,2,0,0,0,0
PLL,Parli,Unknown,Unknown,Unknown,Point,76.559421,10.800415,0,3,1,0,0,0,0
AGTL,Agartala,Tripura,NFR,"Agartala, Tripura",Point,91.278481,23.792417,0,4,1,0,0,0,0
MNY,Mankarai,Unknown,Unknown,Unknown,Point,76.500232,10.771526,0,3,1,0,0,0,0
LDY,Lakkiti,Unknown,Unknown,Unknown,Point,76.434467,10.753217,0,3,1,0,0,0,0
PLPM,Palappuram,Unknown,Unknown,Unknown,Point,76.398385813,10.7525187905,0,4,1,0,0,0,0
OTP,Ottappalam,Unknown,Unknown,Unknown,Point,76.377993,10.770046,0,3,1,0,0,0,0
MNUR,Mannanur,Unknown,Unknown,Unknown,Point,76.323555,10.749322,0,4,1,0,0,0,0
ZRDE,Jiradei,Unknown,Unknown,Unknown,Point,84.256142,26.220819,0,4,1,0,0,0,0
SV,Siwan Jn,Unknown,Unknown,Unknown,Point,84.359267,26.210724000000003,0,2,2,1,0,0,0
PCK,Pachrukhi,Unknown,Unknown,Unknown,Point,84.415667,26.162628,0,3,1,0,0,0,0
DDA,Duraundha Jn,Unknown,Unknown,Unknown,Point,84.45894600000001,26.086973,0,3,2,1,0,0,0
CW,Chainwa,Unknown,Unknown,Unknown,Point,84.49649600000001,26.022117,0,2,1,0,0,0,0
POK,Pokran,Rajasthan,NWR,"National Highway 15, Rajasthan",Point,71.923129,26.930571,0,3,1,0,0,0,0
OCH,Odhaniya Chacha,Rajasthan,NWR,"National Highway 15, Rajasthan",Point,71.718687,26.972848,0,3,2,0,0,0,0
EKMA,Ekma,Unknown,Unknown,Unknown,Point,84.53637,25.967099,0,4,1,0,0,0,0
DDP,Daudpur,Unknown,Unknown,Unknown,Point,84.591425,25.90709,0,3,1,0,0,0,0
KPS,Kopa Samhota,Unknown,Unknown,Unknown,Point,84.65281399999999,25.851866,0,3,2,0,0,0,0
BTHL,Bithauli,Unknown,Unknown,Unknown,Point,85.29179,25.817069,0,4,1,0,0,0,0
GB,Gauri Bazar,Unknown,Unknown,Unknown,Point,83.667801,26.594934,0,2,2,0,0,0,0
BALR,Baitalpur,Unknown,Unknown,Unknown,Point,83.7385572,26.5526634,0,4,1,0,0,0,0
DEOS,Deoria Sadar,Unknown,Unknown,Unknown,Point,83.7819590961,26.5076811676,0,4,2,0,0,0,0
NRA,Nunkhar,Unknown,Unknown,Unknown,Point,83.880179,26.425483,0,3,1,0,0,0,0
AGMN,Agomoni,Unknown,Unknown,Unknown,Point,89.786242,26.225947,0,4,1,0,0,0,0
BND,Bhandup,Unknown,Unknown,Unknown,Point,72.93723505,19.14200998,0,3,1,0,0,0,0
ASR,Amritsar Jn,Unknown,Unknown,Unknown,Point,74.858025,31.631512,0,3,2,1,0,0,0
MUC,Mullurkara,Unknown,Unknown,Unknown,Point,76.271415,10.705843,0,3,1,0,0,0,0
WKI,Wadakancheri,Unknown,Unknown,Unknown,Point,76.237041,10.648956,0,3,1,0,0,0,0
SOG,Suratgarh Jn,Rajasthan,NWR,"National Highway 15, Rajasthan",Point,73.90724800000001,29.324152,0,3,2,1,0,0,0
SNV,Sondad,Maharashtra,SECR,"National Highway 6, Maharashtra",Point,80.094149,21.079845,0,3,1,0,0,0,0
QMRS,Kayamsar,Rajasthan,NWR,"State Highway 41, Rajasthan",Point,75.000562,28.125576,0,4,1,0,0,0,0
AYB,Aliyabad,Karnataka,SWR,"Bijapur, Karnataka",Point,75.758306,16.878268000000002,0,3,1,0,0,0,0
MBF,Munabao,Rajasthan,NWR,"Barmer, Rajasthan",Point,70.276543,25.742614,0,3,1,0,0,0,0
CLDR,Chilikidara,Orissa,ECOR,"Orissa, Orissa",Point,85.827112,21.243022,0,4,1,0,0,0,0
KLYT,Kolayat,Rajasthan,NWR,"Kolayat, Rajasthan",Point,72.95507400000001,27.835319,0,4,1,0,0,0,0
CLD,Chalsa Jn,West Bengal,NFR,"Chalsa, West Bengal",Point,88.798213,26.882215,0,3,2,1,0,0,0
CRX,Carron,West Bengal,NFR,"National Highway 31C, West Bengal",Point,88.9704,26.880279,0,3,1,0,0,0,0
ETF,Itarsi F Cabin,Unknown,Unknown,Unknown,Point,77.774856,22.61521,0,3,3,0,0,0,0
CNPI,Chandanpahari,Jharkhand,ER,"Chandanpahari, Jharkhand",Point,86.953082,24.404224,0,4,1,0,0,0,0
MIG,Midghat,Unknown,Unknown,Unknown,Point,77.647526,22.828141,0,3,1,0,0,0,0
BNU,Bandakpur,Unknown,Unknown,Unknown,Point,79.575956,23.848206,0,3,1,0,0,0,0
COD,Chhota Gudha,Rajasthan,NWR,"Ringas, Rajasthan",Point,75.599508,27.293803,0,3,2,0,0,0,0
CHQ,Choka,Unknown,Unknown,Unknown,Point,77.638968,22.864326,0,3,1,0,0,0,0
MB,Moradabad,Unknown,Unknown,Unknown,Point,78.765801,28.831621,0,2,1,0,0,0,0
IRA,Israna,Haryana,NR,"Israna, Haryana",Point,76.85285999999999,29.291379,0,3,1,0,0,0,0
KRCA,Karachiya Yard,Unknown,Unknown,Unknown,Point,73.132981,22.380046,0,4,2,0,0,0,0
BJW,Bajva,Unknown,Unknown,Unknown,Point,73.1431251,22.3662226,0,3,1,0,0,0,0
CLN,Kollidam,Tamil Nadu,SR,"Vallampadugai, Tamil Nadu",Point,79.718347,11.332713,0,3,1,0,0,0,0
OSHI,Oshi,Unknown,Unknown,Unknown,Unknown,,,1,4,1,0,0,0,0
CNA,Chanderiya,Rajasthan,WR,"Chittorgarh, Rajasthan",Point,74.629979,24.939558,0,3,1,0,0,0,0
CRC,Charkhari Road,Uttar Pradesh,NCR,"Charkhari, Uttar Pradesh",Point,79.74565299999999,25.307556,0,3,2,0,1,0,0
BTT,Bhatni Jn,Unknown,Unknown,Unknown,Point,83.934035,26.381257,0,3,2,1,0,0,0
CSZ,Cossimbazar,West Bengal,ER,"Berhampore, West Bengal",Point,88.266903,24.122264,0,3,1,0,0,0,0
VRE,Varediya,Unknown,Unknown,Unknown,Point,73.048979,21.85838,0,3,1,0,0,0,0
NIU,Nabipur,Unknown,Unknown,Unknown,Point,73.030592,21.807541,0,3,1,0,0,0,0
KTTY,Ktty,Unknown,Unknown,Unknown,Unknown,,,1,4,1,0,0,0,0
CVJ,Chavaj,Unknown,Unknown,Unknown,Point,73.010489,21.753134000000003,0,3,1,0,0,0,0
AKV,Ankleshwar Jn,Unknown,Unknown,Unknown,Point,73.000633,21.623889,0,3,2,1,0,0,0
CNE,Chandranathpur,Assam,NFR,"National Highway 54, Assam",Point,92.716658,24.984962,0,3,1,0,0,0,0
PAO,Panoli,Unknown,Unknown,Unknown,Point,72.978371,21.535197,0,3,1,0,0,0,0
CNL,Chandawal,Rajasthan,NWR,"Pali, Rajasthan",Point,73.86881457700001,25.946542716,0,3,1,0,0,0,0
BFY,Bhesana,Rajasthan,NWR,"Marwar, Rajasthan",Point,73.7180903,25.82438,0,3,1,0,0,0,0
HAT,Hathuran,Unknown,Unknown,Unknown,Point,72.969512,21.501091,0,3,1,0,0,0,0
COL,Coromandel,Karnataka,SWR,"Kgf, Karnataka",Point,78.257278,12.97518,0,3,1,0,0,0,0
KDSD,Kudsad,Unknown,Unknown,Unknown,Point,72.91647999999999,21.37682,0,4,1,0,0,0,0
SYN,Sayan,Unknown,Unknown,Unknown,Point,72.890287,21.317203,0,3,1,0,0,0,0
MQP,Makrandpur,Uttar Pradesh,NER,"Aonla- Bareilly Link Rd, Uttar Pradesh",Point,79.290097,28.213407,0,3,1,0,0,0,0
GTX,Gothangam,Unknown,Unknown,Unknown,Point,72.880104,21.294043,0,3,1,0,0,0,0
MGK,Mulangunnathukavu,Unknown,Unknown,Unknown,Point,76.207809,10.596939,0,3,1,0,0,0,0
CNKP,Chanakyapuri,Delhi Nct,NR,"Chanakyapuri, Delhi Nct",Point,77.172004,28.591905,0,4,1,0,0,0,0
URN,Utran,Unknown,Unknown,Unknown,Point,72.85479600000001,21.232602,0,3,1,0,0,0,0
ST,Surat,Unknown,Unknown,Unknown,Point,72.840793,21.206568,0,2,1,0,0,0,0
UDN,Udhna Jn,Unknown,Unknown,Unknown,Point,72.851461,21.171156,0,3,2,1,0,0,0
VRU,Valiveru,Unknown,Unknown,Unknown,Point,80.605456,16.188934,0,3,1,0,0,0,0
MRPL,Marampalli,Unknown,Unknown,Unknown,Point,81.63387399999999,16.843925,0,4,1,0,0,0,0
NDD,Nidadavolu Jn,Unknown,Unknown,Unknown,Point,81.67550399999999,16.898297,0,3,2,1,0,0,0
GDM,Gudma,Unknown,Unknown,Unknown,Point,80.287678,21.416128,0,3,1,0,0,0,0
BEF,Bhupdeopur,Unknown,Unknown,Unknown,Point,83.25998102000001,21.97503504,0,3,1,0,0,0,0
RIG,Raigarh,Unknown,Unknown,Unknown,Point,83.39067,21.891289,0,3,1,0,0,0,0
KRL,Kotarlia,Unknown,Unknown,Unknown,Point,83.482238,21.883182,0,3,1,0,0,0,0
CTND,Chettinad,Tamil Nadu,SR,"Kanadukathan, Tamil Nadu",Point,78.775924,10.160613,0,4,1,0,0,0,0
SEPR,Sherpur,Uttar Pradesh,NR,"State Highway 51, Uttar Pradesh",Point,78.25287,28.919358,0,4,1,0,0,0,0
NVS,Navsari,Gujarat,WR,"Navsari, Gujarat",Point,72.914294,20.946851,0,3,1,0,0,0,0
JBD,Jalalabad,Punjab,NR,"Jalalabad, Punjab",Point,74.268446,30.60775,0,3,1,0,0,0,0
DDM,Dam Dim,West Bengal,NFR,"National Highway 31, West Bengal",Point,88.67133299999999,26.859243000000003,0,3,2,0,0,0,0
COE,Chitrod,Gujarat,WR,"Kutch, Gujarat",Point,70.655356,23.417869,0,3,1,0,0,0,0
COM,Chomun Samod,Rajasthan,NWR,"Chomun, Rajasthan",Point,75.70272,27.158223,0,3,2,0,0,0,0
DKT,Dhulkot,Haryana,NR,"Ambala City, Haryana",Point,76.78753499999999,30.395686,0,3,1,0,0,0,0
KUW,Kanwar,Unknown,Unknown,Unknown,Point,81.21464405030001,25.7036520692,0,3,1,0,0,0,0
CDMR,Chandauli Mjhwr,Unknown,Unknown,Unknown,Point,83.267724,25.261093,0,4,2,0,0,0,0
IGPX,Igpx,Unknown,Unknown,Unknown,Unknown,,,1,4,1,0,0,0,0
KGA,Khaga,Unknown,Unknown,Unknown,Point,81.102658,25.761853,0,3,1,0,0,0,0
KTCE,Katoghan,Unknown,Unknown,Unknown,Point,81.16560600000001,25.730035,0,4,1,0,0,0,0
ASCE,Athsarai,Unknown,Unknown,Unknown,Point,81.2620300824,25.678728805,0,4,1,0,0,0,0
CRLM,Carmelaram,Karnataka,SWR,"Bengaluru, Karnataka",Point,77.706014,12.907633,0,4,1,0,0,0,0
CNR,Chandar,Goa,SWR,"Chanra (Chandor), Goa",Point,74.047794,15.264834,0,3,1,0,0,0,0
CMDP,Chimidipalli,Andhra Pradesh,ECOR,"Borra, Andhra Pradesh",Point,83.07686199999999,18.262764,0,4,1,0,0,0,0
BDL,Vindhyachal,Unknown,Unknown,Unknown,Point,82.5020212,25.1607717,0,3,1,0,0,0,0
TSA,Tisua,Unknown,Unknown,Unknown,Point,79.58628900000001,28.136577,0,3,1,0,0,0,0
TAS,Thasra,Gujarat,WR,"National Highway 59, Gujarat",Point,73.221682,22.797769,0,3,1,0,0,0,0
GHT,Ghaghara Ghat,Unknown,Unknown,Unknown,Point,81.5033135022,27.1026834977,0,3,2,0,0,0,0
BV,Babhnan,Unknown,Unknown,Unknown,Point,82.500127,26.938525,0,2,1,0,0,0,0
CLW,Chilwariya,Uttar Pradesh,NER,"Bahraich, Uttar Pradesh",Point,81.69873199999999,27.487001000000003,0,3,1,0,0,0,0
OKAC,Okac,Unknown,Unknown,Unknown,Unknown,,,1,4,1,0,0,0,0
GAUR,Gaur,Unknown,Unknown,Unknown,Point,82.56115799999999,26.913411,0,4,1,0,0,0,0
TH,Tinich,Unknown,Unknown,Unknown,Point,82.639707,26.882281000000003,0,2,1,0,0,0,0
BHTR,Bhatpar Rani,Unknown,Unknown,Unknown,Point,84.03310139999999,26.3104766,0,4,2,0,0,0,0
TUR,Turki,Unknown,Unknown,Unknown,Point,85.354709,26.034431,0,3,1,0,0,0,0
RD,Ram Dayalu Nagar,Unknown,Unknown,Unknown,Point,85.38359600000001,26.097367,0,2,3,0,0,0,0
BTO,Bhitaura,Unknown,Unknown,Unknown,Point,79.306506,28.469954,0,3,1,0,0,0,0
PKRA,Parsa Khera,Unknown,Unknown,Unknown,Point,79.34185199999999,28.433371,0,4,2,0,0,0,0
CHTI,Chaneti,Unknown,Unknown,Unknown,Point,79.42916573,28.3087958495,0,4,1,0,0,0,0
BLPU,Bilpur,Unknown,Unknown,Unknown,Point,79.62578099999999,28.083668,0,4,1,0,0,0,0
MK,Miranpur Katra,Unknown,Unknown,Unknown,Point,79.674809,28.03708,0,2,2,0,0,0,0
MILA,Milakpur Halt,Unknown,Unknown,Unknown,Point,79.71796182739999,27.988261374,0,4,2,0,0,0,0
TLH,Tilhar,Unknown,Unknown,Unknown,Point,79.741776,27.972984,0,3,1,0,0,0,0
CQL,Chirakkal,Kerala,SR,"Kannur District, Kerala",Point,75.353696,11.911049,0,3,1,0,0,0,0
PNQ,Punkunnam,Unknown,Unknown,Unknown,Point,76.20943,10.535054,0,3,1,0,0,0,0
TCR,Thrisur,Unknown,Unknown,Unknown,Point,76.207919,10.51479,0,3,1,0,0,0,0
CMNR,Chamarajanagar,Karnataka,SWR,"Chamarajnagar, Karnataka",Point,76.932807,11.934891,0,4,1,0,0,0,0
CMJ,Chamarajapuram,Karnataka,SWR,"Mysore, Karnataka",Point,76.637861,12.29844,0,3,1,0,0,0,0
BKA,Barkhera,Unknown,Unknown,Unknown,Point,77.649646,22.917359,0,3,1,0,0,0,0
ODG,Obaidulla Ganj,Unknown,Unknown,Unknown,Point,77.587299,22.994912,0,3,2,0,0,0,0
ACL,Ancheli,Gujarat,WR,"Navsari, Gujarat",Point,72.944978,20.845167,0,3,1,0,0,0,0
CVR,Chorvad Road,Gujarat,WR,"Gadu, Gujarat",Point,70.290734,21.055196,0,3,2,0,1,0,0
CTH,Chikalthana,Maharashtra,SCR,"Aurangabad, Maharashtra",Point,75.402851,19.859565,0,3,1,0,0,0,0
BTKD,Bharatkund,Uttar Pradesh,NR,"Bikapur, Uttar Pradesh",Point,82.12739309999999,26.6360965,0,4,1,0,0,0,0
DHW,Dhariwal,Punjab,NR,"Dhariwal, Punjab",Point,75.32156499999999,31.949113,0,3,1,0,0,0,0
SAI,Sarai,Unknown,Unknown,Unknown,Point,85.27660900000001,25.779962,0,3,1,0,0,0,0
CPE,Chandiposi,Orissa,SER,"National Highway 23, Orissa",Point,84.915988,22.068677,0,3,1,0,0,0,0
CRU,Chudawa,Maharashtra,SCR,"Hingoli, Maharashtra",Point,77.1169303369,19.1803282622,0,3,1,0,0,0,0
DBB,Dhubri,Assam,NFR,"Dhubri, Assam",Point,89.977952,26.023137,0,3,1,0,0,0,0
PNP,Panipat Jn,Unknown,Unknown,Unknown,Point,76.96379300000001,29.388948,0,3,2,1,0,0,0
CPS,Chandpur Siau Halt,Uttar Pradesh,NR,"Chandpur, Uttar Pradesh",Point,78.27585499999999,29.13201,0,3,3,0,0,0,0
CX,Chanol,Gujarat,WR,"State Highway 25, Gujarat",Point,70.53884199999999,22.427916,0,2,1,0,0,0,0
CSR,Chak Sikandar,Bihar,ECR,"Chak Sikander, Bihar",Point,85.365246145,25.6767202377,0,3,2,0,0,0,0
CRQ,Charpokhari Halt,Bihar,ECR,"Charpokhari, Bihar",Point,84.487603186,25.3615157718,0,3,2,0,0,0,0
VNA,Varangaon,Unknown,Unknown,Unknown,Point,75.9006577881,21.0097131944,0,3,1,0,0,0,0
DAG,Dhang,Bihar,ECR,"Bhang, Bihar",Point,85.353298,26.7174,0,3,1,0,0,0,0
CRW,Charaud,Haryana,NWR,"National Highway 65, Haryana",Point,75.6466632,29.0094584,0,3,1,0,0,0,0
BTL,Bortalao,Unknown,Unknown,Unknown,Point,80.626207,21.218301,0,3,1,0,0,0,0
KHS,Kharsia,Unknown,Unknown,Unknown,Point,83.102414,21.99178,0,3,1,0,0,0,0
ROB,Robertson,Unknown,Unknown,Unknown,Point,83.182508,21.988744,0,3,1,0,0,0,0
CPK,Chaparmukh Jn,Assam,NFR,"Chaparmukh, Assam",Point,92.511718,26.202272,0,3,2,1,0,0,0
CTW,Chhintanwala,Punjab,NR,"Sherpur Sodhian Link Rd, Punjab",Point,76.014229,30.365958000000003,0,3,1,0,0,0,0
CTA,Chitradurg,Karnataka,SWR,"Chitradurga, Karnataka",Point,76.386431,14.231154,0,3,1,0,0,0,0
AAV,Ambav,Gujarat,WR,"Ambav, Gujarat",Unknown,,,1,3,1,0,0,0,0
MDKU,Modukuru,Unknown,Unknown,Unknown,Point,80.58380799999999,16.124988000000002,0,4,1,0,0,0,0
TSR,Tsunduru,Unknown,Unknown,Unknown,Point,80.58648699999999,16.157497,0,3,1,0,0,0,0
NBM,Navabpalem,Unknown,Unknown,Unknown,Point,81.606702,16.831606,0,3,1,0,0,0,0
NMBR,N Mayurbhanj Road,Unknown,Unknown,Unknown,Point,87.038724,21.666901,0,4,3,0,1,0,0
BTS,Basta,Unknown,Unknown,Unknown,Point,87.0637831,21.7029241,0,3,1,0,0,0,0
CTD,Chhota Udepur,Gujarat,WR,"Vadodara, Gujarat",Point,74.014286,22.314788,0,3,2,0,0,0,0
DBY,Digboi,Assam,NFR,"Tinsukia, Assam",Point,95.616982,27.383483,0,3,1,0,0,0,0
CWI,Chondi,Maharashtra,SCR,"Parbhani, Maharashtra",Point,77.1556666229,19.430619765,0,3,1,0,0,0,0
CSDR,Channasandra,Karnataka,SWR,"Bengaluru, Karnataka",Point,77.6629705685,13.0109407208,0,4,1,0,0,0,0
PGT,Palakkad,Unknown,Unknown,Unknown,Point,76.641926,10.802091,0,3,1,0,0,0,0
MNHA,Mindha,Rajasthan,NWR,"Minda To Mandha Bhimsingh Rd, Rajasthan",Point,75.33241,27.112061,0,4,1,0,0,0,0
DBO,Dabhoda,Gujarat,WR,"Dabhoda, Gujarat",Point,72.748038,23.168331,0,3,1,0,0,0,0
DABN,Dhaban,Rajasthan,NWR,"Sangaria, Rajasthan",Point,74.54288000000001,29.859997,0,4,1,0,0,0,0
DBI,Dabli Rathan,Rajasthan,NWR,"Hanumangarh, Rajasthan",Point,74.19093000000001,29.542416,0,3,2,0,0,0,0
SID,Siddhpur,Gujarat,WR,"State Highway 41, Gujarat",Point,72.367959,23.918067,0,3,1,0,0,0,0
ARGD,Arigada,,ECR,,Point,85.466475,23.643461,0,4,1,0,0,0,0
CTJ,Chhataini,Madhya Pradesh,WCR,"Awasthi Sadan Rd, Madhya Pradesh",Point,81.287323,23.994088,0,3,1,0,0,0,0
KTKD,Katangi Khurd,Madhya Pradesh,WCR,"State Highway 10, Madhya Pradesh",Point,80.48673398129999,23.7758696073,0,4,2,0,0,0,0
CRL,Choral,Madhya Pradesh,WR,"Sh 27, Madhya Pradesh",Point,75.94413499999999,22.450677,0,3,1,0,0,0,0
ABSA,Ambassa,Tripura,NFR,"Ambassa, Tripura",Point,91.860783,23.930507,0,4,1,0,0,0,0
NVP,Navalpura,Unknown,Unknown,Unknown,Point,73.19955399999999,23.289155,0,3,1,0,0,0,0
DBKA,Dabka,Madhya Pradesh,SCR,"Amlakhurd, Madhya Pradesh",Point,76.720809,21.361353,0,4,1,0,0,0,0
CQR,Champapukur,West Bengal,ER,"Kholapota, West Bengal",Point,88.80796000000001,22.656634,0,3,1,0,0,0,0
NDAZ,Naya Azadpur,Unknown,Unknown,Unknown,Point,77.166876,28.714564,0,4,2,0,0,0,0
ANDI,Adarsh Nagar Delhi,Unknown,Unknown,Unknown,Point,77.16670699999999,28.714205,0,4,3,0,0,0,0
CUR,Churu,Rajasthan,NWR,"Churu, Rajasthan",Point,74.966203,28.288281,0,3,1,0,0,0,0
BHD,Badli,Unknown,Unknown,Unknown,Point,77.1377425,28.7468,0,3,1,0,0,0,0
KHKN,Khera Kalan,Unknown,Unknown,Unknown,Point,77.115838,28.769718,0,4,2,0,0,0,0
HUK,Holambi Kalan,Unknown,Unknown,Unknown,Point,77.102334,28.801187,0,3,2,0,0,0,0
NUR,Narela,Unknown,Unknown,Unknown,Point,77.085727,28.846886,0,3,1,0,0,0,0
CWA,Chhindwara Junction,Madhya Pradesh,SECR,"Chhindwara, Madhya Pradesh",Point,78.953212,22.058201,0,3,2,1,0,0,0
RDDE,Rathdhana,Unknown,Unknown,Unknown,Point,77.05914800000001,28.904132,0,4,1,0,0,0,0
CTPE,Chandanattop Halt,Kerala,SR,"Kilikkollur, Kerala",Point,76.64532,8.932478000000001,0,4,2,0,0,0,0
HNN,Harana Kalan,Unknown,Unknown,Unknown,Point,77.039135,28.945425,0,3,2,0,0,0,0
SNP,Sonipat,Unknown,Unknown,Unknown,Point,77.017343,28.989423,0,3,1,0,0,0,0
SLKN,Sandal Kalan,Unknown,Unknown,Unknown,Point,77.012589,29.063432,0,4,2,0,0,0,0
RUG,Rajlu Garhi,Unknown,Unknown,Unknown,Point,77.012109,29.090744,0,3,2,0,0,0,0
GNU,Ganaur,Unknown,Unknown,Unknown,Point,77.01074999999999,29.130776,0,3,1,0,0,0,0
BDMJ,Bhodwal Majri,Unknown,Unknown,Unknown,Point,77.0082364,29.1852092,0,4,2,0,0,0,0
SMK,Samalkha,Unknown,Unknown,Unknown,Point,77.003034,29.240172,0,3,1,0,0,0,0
DWNA,Diwana,Unknown,Unknown,Unknown,Point,76.980194,29.318564,0,4,1,0,0,0,0
BBDE,Babarpur,Unknown,Unknown,Unknown,Point,76.966178,29.449652,0,4,1,0,0,0,0
KFU,Kohand,Unknown,Unknown,Unknown,Point,76.968758,29.494782,0,3,1,0,0,0,0
GRA,Gharaunda,Unknown,Unknown,Unknown,Point,76.96575000000001,29.541636,0,3,1,0,0,0,0
BZJT,Bazida Jatan,Unknown,Unknown,Unknown,Point,76.965812,29.613391,0,4,2,0,0,0,0
KUN,Karnal,Unknown,Unknown,Unknown,Point,76.969821,29.694566,0,3,1,0,0,0,0
BZK,Bhaini Khurd,Unknown,Unknown,Unknown,Point,76.95536200000001,29.751544,0,3,2,0,0,0,0
TRR,Taraori,Unknown,Unknown,Unknown,Point,76.93858,29.797906,0,3,1,0,0,0,0
NLKR,Nilokheri,Unknown,Unknown,Unknown,Point,76.925491,29.831492,0,4,1,0,0,0,0
KKDE,Kurukshetra Jn,Unknown,Unknown,Unknown,Point,76.852795,29.96944,0,4,2,1,0,0,0
DAVM,Dhanuvachapuram,Kerala,SR,"Dhanuvachapuram, Kerala",Point,77.124352,8.378802,0,4,1,0,0,0,0
CTS,Chattriput,Orissa,ECOR,"Jeypore, Orissa",Point,82.590027,18.922722,0,3,1,0,0,0,0
DAVJ,D.A.V.C.H. Jalandhar,Punjab,NR,"Jalandhar, Punjab",Point,75.56132,31.346977000000003,0,4,2,0,0,0,0
DLPI,Indrapuri,Delhi Nct,NR,"Delhi Cantonment, Delhi Nct",Point,77.14358825779999,28.6283424665,0,4,1,0,0,0,0
GRG,Guwarighat,Madhya Pradesh,SECR,"Gwarighat, Madhya Pradesh",Point,79.92761300000001,23.110295,0,3,1,0,0,0,0
DSJ,Delhi Safdarjung,Delhi Nct,NR,"Netaji Nagar, Delhi Nct",Point,77.186969,28.582121,0,3,2,0,0,0,0
DHRN,Dhurana,Haryana,NR,"Panipat, Haryana",Point,76.803295,29.253606,0,4,1,0,0,0,0
DUK,Dudia,Rajasthan,NWR,"Dundara, Rajasthan",Point,72.902042,25.934458,0,3,1,0,0,0,0
DAJ,Duroji,Karnataka,SWR,"Bellary, Karnataka",Point,76.70013,15.227107,0,3,1,0,0,0,0
BTPH,Chakia Thermal Halt,Unknown,Unknown,Unknown,Point,86.01624276369999,25.4012639369,0,4,3,0,0,0,0
JDDA,Jatha,Unknown,Unknown,Unknown,Point,82.875333703,22.0159803866,0,4,1,0,0,0,0
JDI,Jharradih,Unknown,Unknown,Unknown,Point,83.050747,21.999876,0,3,1,0,0,0,0
DKO,Devakottai Road,Tamil Nadu,SR,"Nh 210, Tamil Nadu",Point,78.761747,10.037610999999998,0,3,2,0,1,0,0
DIB,Dibai,Uttar Pradesh,NR,"Dibai, Uttar Pradesh",Point,78.303084,28.19378,0,3,1,0,0,0,0
CNJO,Juhi Outer Cabin,Unknown,Unknown,Unknown,Point,80.3239098425,26.4531901925,0,4,3,0,0,0,0
LMA,Lambiya,Rajasthan,NWR,"National Highway 79, Rajasthan",Point,74.58561499999999,25.578334,0,3,1,0,0,0,0
DBLG,Dblg,Unknown,Unknown,Unknown,Unknown,,,1,4,1,0,0,0,0
DOHM,Devgarh Madriya,Rajasthan,NWR,"Devgarh, Rajasthan",Point,73.855552,25.610206,0,4,2,0,0,0,0
NHLG,Nhlg,Unknown,Unknown,Unknown,Unknown,,,1,4,1,0,0,0,0
DYE,Dayanand Nagar,Andhra Pradesh,SCR,"Secunderabad, Andhra Pradesh",Point,78.53134999999999,17.456247,0,3,2,0,0,0,0
DBV,Dabilpur,Andhra Pradesh,SCR,"Rangareddy, Andhra Pradesh",Point,78.470315,17.674226,0,3,1,0,0,0,0
JGLP,Jglp,Unknown,Unknown,Unknown,Unknown,,,1,4,1,0,0,0,0
BGZ,Bahadurgarh,Haryana,NR,"Bahadurgarh, Haryana",Point,76.930886,28.700863,0,3,1,0,0,0,0
PNSR,Pnsr,Unknown,Unknown,Unknown,Unknown,,,1,4,1,0,0,0,0
DME,Damnagar,Gujarat,WR,"Damnagar, Gujarat",Point,71.509053,21.688346,0,3,1,0,0,0,0
AG,Aranghata,West Bengal,ER,"Haranath Para Ln, West Bengal",Point,88.613551,23.242037,0,2,1,0,0,0,0
RLG,Relangi,Andhra Pradesh,SCR,"Relangi, Andhra Pradesh",Point,81.64411,16.709921,0,3,1,0,0,0,0
CCAB,Bmy C Cabin,Unknown,Unknown,Unknown,Point,81.44306300000001,21.209789,0,4,3,0,0,0,0
DNDI,Dhondi,Maharashtra,SCR,"State Highway 148, Maharashtra",Point,76.736112,19.106268,0,4,1,0,0,0,0
NDO,Nidubrolu,Unknown,Unknown,Unknown,Point,80.557243,16.067904,0,3,1,0,0,0,0
FKA,Fazilka,Punjab,NR,"Fazilka, Punjab",Point,74.02541699999999,30.408641,0,3,1,0,0,0,0
TDD,Tadepalligudem,Unknown,Unknown,Unknown,Point,81.526314,16.809960999999998,0,3,1,0,0,0,0
PTPU,Prattiapadu,Unknown,Unknown,Unknown,Point,81.581431,16.820864999999998,0,4,1,0,0,0,0
BDHT,Bardi Halt,Madhya Pradesh,SECR,"State Highway 19, Madhya Pradesh",Point,78.822411,21.621177,0,4,2,0,0,0,0
DJL,Dodajala Lake,Karnataka,SWR,"Hosur Road., Karnataka",Point,77.652122,13.183156,0,3,2,0,0,0,0
DIU,Dhing,Assam,NFR,"National Highway 37, Assam",Point,92.450865,26.453101,0,3,1,0,0,0,0
DGQ,Dugdol,Gujarat,NWR,"Dhanera, Gujarat",Point,72.096828,24.631708,0,3,1,0,0,0,0
DAU,Dagru,Punjab,NR,"Dagru, Punjab",Point,75.047442,30.834858,0,3,1,0,0,0,0
GWH,Ghoshawar,Unknown,Unknown,Unknown,Point,85.24335073670001,25.7374211354,0,3,1,0,0,0,0
HJP,Hajipur Jn,Unknown,Unknown,Unknown,Point,85.2155,25.702909,0,3,2,1,0,0,0
ENBG,Enbg,Unknown,Unknown,Unknown,Unknown,,,1,4,1,0,0,0,0
PUK,Pudukad,Unknown,Unknown,Unknown,Point,76.26070700000001,10.420507,0,3,1,0,0,0,0
NYI,Nellayi,Unknown,Unknown,Unknown,Point,76.275994,10.392415000000002,0,3,1,0,0,0,0
UKL,Uttukuli,Unknown,Unknown,Unknown,Point,77.448615,11.156494,0,3,1,0,0,0,0
TUP,Tiruppur,Unknown,Unknown,Unknown,Point,77.341247,11.108906,0,3,1,0,0,0,0
SNO,Somanur,Unknown,Unknown,Unknown,Point,77.18638,11.087247,0,3,1,0,0,0,0
SUU,Sulur Road,Unknown,Unknown,Unknown,Point,77.11729,11.049634,0,3,2,0,1,0,0
IGU,Irugur,Unknown,Unknown,Unknown,Point,77.06913399999999,11.017199,0,3,1,0,0,0,0
SHI,Singanallur,Unknown,Unknown,Unknown,Point,77.03945900000001,11.012921,0,3,1,0,0,0,0
PLMD,Pilamedu,Unknown,Unknown,Unknown,Point,76.999566,11.033241,0,4,1,0,0,0,0
CBE,Coimbatore Jn,Unknown,Unknown,Unknown,Point,76.966298,10.997639,0,3,2,1,0,0,0
PTJ,Podanur Jn,Unknown,Unknown,Unknown,Point,76.990125,10.965425,0,3,2,1,0,0,0
MDKI,Madukarai,Unknown,Unknown,Unknown,Point,76.94295000000001,10.900858,0,4,1,0,0,0,0
IJK,Irinjalakuda,Unknown,Unknown,Unknown,Point,76.280924,10.339456,0,3,1,0,0,0,0
CKI,Chalakudi,Unknown,Unknown,Unknown,Point,76.3218076,10.3017975,0,3,1,0,0,0,0
DINR,Divine Nagar,Unknown,Unknown,Unknown,Point,76.3363143628,10.2853993721,0,4,2,0,0,0,0
KRAN,Koratti Angadi,Unknown,Unknown,Unknown,Point,76.355901,10.260123,0,4,2,0,0,0,0
KUC,Karukkutty,Unknown,Unknown,Unknown,Point,76.373077,10.225757,0,3,1,0,0,0,0
AFK,Angamali,Unknown,Unknown,Unknown,Point,76.37786,10.183676,0,3,1,0,0,0,0
CWR,Chovvara,Unknown,Unknown,Unknown,Point,76.37218899999999,10.133064,0,3,1,0,0,0,0
DJ,Darjeeling,West Bengal,NFR,"Darjeeling, West Bengal",Point,88.263326,27.038151,0,2,1,0,0,0,0
AWY,Aluva,Unknown,Unknown,Unknown,Point,76.356508,10.108163,0,3,1,0,0,0,0
KLMR,Kalamassery,Unknown,Unknown,Unknown,Point,76.32695600000001,10.061818,0,4,1,0,0,0,0
IPL,Edappally,Unknown,Unknown,Unknown,Point,76.298271,10.034338,0,3,1,0,0,0,0
ERN,Ernakulam Town,Unknown,Unknown,Unknown,Point,76.2861,9.991582,0,3,2,0,0,0,0
ETMD,Ettimadai,Unknown,Unknown,Unknown,Point,76.89715500000001,10.898788,0,4,1,0,0,0,0
WRA,Walayar,Unknown,Unknown,Unknown,Point,76.8376135147,10.8471810329,0,3,1,0,0,0,0
DBN,Dhablan,Punjab,NR,"Gurudwara Ishar Darbar Rd, Punjab",Point,76.276917865,30.3379133215,0,3,1,0,0,0,0
DBF,Dabpal,Chhattisgarh,?,"Dabpal, Chhattisgarh",Point,81.488923,18.92798,0,3,1,0,0,0,0
DBZ,Dhing Bazar,Assam,NFR,"Mathaouri Rd, Assam",Point,92.481039,26.455873,0,3,2,0,0,0,0
CLMD,Chullimada,Unknown,Unknown,Unknown,Point,76.801793,10.837165,0,4,1,0,0,0,0
KTKU,Kottekad,Unknown,Unknown,Unknown,Point,76.693457,10.815731,0,4,1,0,0,0,0
DLC,Dalmera,Rajasthan,NWR,"Bikaner, Rajasthan",Point,73.65658,28.417832,0,3,1,0,0,0,0
TNU,Tirunettur,Unknown,Unknown,Unknown,Point,76.30765699999999,9.933729,0,3,1,0,0,0,0
KUMM,Kumbalam,Unknown,Unknown,Unknown,Point,76.3116,9.906723,0,4,1,0,0,0,0
AROR,Aroor Halt,Unknown,Unknown,Unknown,Point,76.30283299999999,9.8791031,0,4,2,0,0,0,0
EZP,Ezhuppunna,Unknown,Unknown,Unknown,Point,76.302391,9.820288,0,3,1,0,0,0,0
TUVR,Turavur,Unknown,Unknown,Unknown,Point,76.309979,9.772809,0,4,1,0,0,0,0
ERSC,Ernakulam Jn. C,Unknown,Unknown,Unknown,Point,76.28985899999999,9.97806,0,4,3,1,0,0,0
DIR,Dhanapur Orissa,Orissa,ECOR,"National Highway 43, Orissa",Point,82.50739300000001,18.945173,0,3,2,0,0,0,0
DRN,Deoranian,Uttar Pradesh,NER,"Sh 37, Uttar Pradesh",Point,79.476473,28.64478,0,3,1,0,0,0,0
BGS,Begu Sarai,Bihar,ECR,"06243-222853, Bihar",Point,86.134476,25.425296,0,3,2,0,0,0,0
BQQ,Bakhleta,Unknown,Unknown,Unknown,Point,79.96972000000001,23.846381,0,3,1,0,0,0,0
GBP,Gulabpura,Rajasthan,NWR,"Gulabpura, Rajasthan",Point,74.65595449829999,25.9027951891,0,3,1,0,0,0,0
REI,Rithi,Unknown,Unknown,Unknown,Point,80.140267,23.904168,0,3,1,0,0,0,0
MBWC,Moradabad West,Unknown,Unknown,Unknown,Point,78.7596338837,28.83865785,0,4,2,0,0,0,0
HRH,Harthala,Unknown,Unknown,Unknown,Point,78.73559542849999,28.8719872056,0,3,1,0,0,0,0
GOA,Gohad Road,Madhya Pradesh,NCR,"Bhind, Madhya Pradesh",Point,78.439153,26.480421000000003,0,3,2,0,1,0,0
DHNR,Dhanora Deccan,Maharashtra,SCR,"Kinwat, Maharashtra",Point,78.13275402709999,19.4655174389,0,4,2,0,0,0,0
ALD,Allahabad Jn,Unknown,Unknown,Unknown,Point,81.828816,25.446241,0,3,2,1,0,0,0
ETAH,Etah,Uttar Pradesh,NCR,"Etah, Uttar Pradesh",Point,78.65391899999999,27.571173,0,4,1,0,0,0,0
GG,Gandhigram,Gujarat,WR,"Ahmedabad, Gujarat",Point,72.568831,23.02676,0,2,1,0,0,0,0
BSL,Bhusaval Jn,Unknown,Unknown,Unknown,Point,75.78867170000001,21.0472812,0,3,2,1,0,0,0
KOPR,Kopar Road,Unknown,Unknown,Unknown,Point,73.077841,19.211345,0,4,2,0,1,0,0
GGLE,Gangatikuri,West Bengal,ER,"State Highway 6, West Bengal",Point,88.087286,23.71822,0,4,1,0,0,0,0
KWD,Karwandia,Unknown,Unknown,Unknown,Point,84.084599,24.953195,0,3,1,0,0,0,0
GDD,Gadra Road,Rajasthan,NWR,"Gadara, Rajasthan",Point,70.64304,25.743851,0,3,2,0,1,0,0
SSM,Sasaram,Unknown,Unknown,Unknown,Point,84.019423,24.955926,0,3,1,0,0,0,0
DTAE,Dhatrigram,West Bengal,ER,"Dhatrigram, West Bengal",Point,88.31182199999999,23.277796,0,4,1,0,0,0,0
SLOR,Seloo Road,Unknown,Unknown,Unknown,Point,78.71490899999999,20.77665,0,4,2,0,1,0,0
SNI,Sindi,Unknown,Unknown,Unknown,Point,78.883342,20.816446,0,3,1,0,0,0,0
DNUA,Dhansura,Gujarat,WR,"State Highway 68, Gujarat",Point,73.19870999999999,23.351916,0,4,1,0,0,0,0
SGRD,Sulgare,Unknown,Unknown,Unknown,Point,82.743775,22.019979,0,4,1,0,0,0,0
BUA,Baradwar,Unknown,Unknown,Unknown,Point,82.813724,22.011725,0,3,1,0,0,0,0
SKT,Sakti,Unknown,Unknown,Unknown,Point,82.956526,22.011785000000003,0,3,1,0,0,0,0
EDU,Eriodu,Tamil Nadu,SR,"State Highway 74, Tamil Nadu",Point,78.05712899000001,10.51562799,0,3,1,0,0,0,0
SUJ,Sarju,Unknown,Unknown,Unknown,Point,81.648076,27.111885,0,3,1,0,0,0,0
GDN,Gangaikondan,Tamil Nadu,SR,"Thoothukudi, Tamil Nadu",Point,77.786203,8.830736,0,3,1,0,0,0,0
LDR,Landaura,Unknown,Unknown,Unknown,Point,77.941557,29.814493,0,3,1,0,0,0,0
DUN,Duganpur,Unknown,Unknown,Unknown,Point,79.13019,28.658317,0,3,1,0,0,0,0
CBJ,Clutter Buck Ganj,Unknown,Unknown,Unknown,Point,79.371946,28.396895,0,3,3,0,0,0,0
BE,Bareilly,Unknown,Unknown,Unknown,Point,79.4108444,28.3371543,0,2,1,0,0,0,0
NHGJ,Nhgj,Unknown,Unknown,Unknown,Unknown,,,1,4,1,0,0,0,0
DTC,Ditokcherra,Assam,NFR,"North Cachar Hills, Assam",Point,92.798715,25.090538,0,3,1,0,0,0,0
BPG,Badurpur Ghat,Assam,NFR,"National Highway 53, Assam",Point,92.581099,24.872902,0,3,2,0,0,0,0
GIW,Girdharpur,Rajasthan,NCR,"State Highway 6, Rajasthan",Point,76.794583,25.845508,0,3,1,0,0,0,0
RYS,Rasuriya,Unknown,Unknown,Unknown,Point,79.47445900000001,28.26396,0,3,1,0,0,0,0
NYO,Nayagaon,Unknown,Unknown,Unknown,Point,85.099366,25.763263,0,3,1,0,0,0,0
PMU,Parmanandpur,Unknown,Unknown,Unknown,Point,85.133951,25.741291,0,3,1,0,0,0,0
GIR,Gainsari Junction,Uttar Pradesh,NER,"Balrampur, Uttar Pradesh",Point,82.5441789069,27.5268392968,0,3,2,1,0,0,0
BPP,Bapatla,Unknown,Unknown,Unknown,Point,80.46842480000001,15.9086144,0,3,1,0,0,0,0
APL,Appikatla,Unknown,Unknown,Unknown,Point,80.514466,15.970371,0,3,1,0,0,0,0
MCVM,Machavaram,Unknown,Unknown,Unknown,Point,80.54154100000001,16.025343,0,4,1,0,0,0,0
CEL,Chebrol,Unknown,Unknown,Unknown,Point,81.396533,16.819948,0,3,1,0,0,0,0
GGH,Ghogardiha,Bihar,ECR,"Ghoghardiha, Bihar",Point,86.468503,26.282768,0,3,1,0,0,0,0
BPY,Badampudi,Unknown,Unknown,Unknown,Point,81.473751,16.828104,0,3,1,0,0,0,0
ARD,Amarda Road,Unknown,Unknown,Unknown,Point,87.102374,21.734258,0,3,2,0,1,0,0
PY,Perundurai,Unknown,Unknown,Unknown,Point,77.628672,11.25334,0,2,1,0,0,0,0
FSR,Faqarsar,Punjab,NR,"Fakarsar, Punjab",Point,74.57257200000001,30.189431000000003,0,3,1,0,0,0,0
CFG,Chakiting,Assam,NFR,"Dhodar Ali, Assam",Point,94.0956546234,26.5616754046,0,3,1,0,0,0,0
IGR,Ingur,Unknown,Unknown,Unknown,Point,77.587299,11.22501,0,3,1,0,0,0,0
VZ,Vijayamangalam,Unknown,Unknown,Unknown,Point,77.522231,11.195525,0,2,1,0,0,0,0
DLA,Doulta,Unknown,Unknown,Unknown,Point,78.42932499999999,24.998509,0,3,1,0,0,0,0
TBT,Talbahat,Unknown,Unknown,Unknown,Point,78.414552,25.039255,0,3,1,0,0,0,0
MZX,Matatila,Unknown,Unknown,Unknown,Point,78.40284000000001,25.0851,0,3,1,0,0,0,0
BZY,Basai,Unknown,Unknown,Unknown,Point,78.394254,25.142923,0,3,1,0,0,0,0
BAB,Babina,Unknown,Unknown,Unknown,Point,78.451748,25.237832,0,3,1,0,0,0,0
KHJ,Khajraha,Unknown,Unknown,Unknown,Point,78.478365,25.304158,0,3,1,0,0,0,0
BJI,Bijauli,Unknown,Unknown,Unknown,Point,78.51774610000001,25.3764678,0,3,1,0,0,0,0
JHSA,Jhansi A Cabin,Unknown,Unknown,Unknown,Point,78.545787,25.41949,0,4,3,0,0,0,0
JHS,Jhansi Jn,Unknown,Unknown,Unknown,Point,78.55298499999999,25.443585,0,3,2,1,0,0,0
KRQ,Karari,Unknown,Unknown,Unknown,Point,78.509084,25.530800000000003,0,3,1,0,0,0,0
DAA,Datia,Unknown,Unknown,Unknown,Point,78.456356,25.641070000000003,0,3,1,0,0,0,0
SOR,Sonagir,Unknown,Unknown,Unknown,Point,78.409099,25.730668,0,3,1,0,0,0,0
KTRA,Kotra,Unknown,Unknown,Unknown,Point,78.381661,25.811254,0,4,1,0,0,0,0
DBA,Dabra,Unknown,Unknown,Unknown,Point,78.331015,25.881197,0,3,1,0,0,0,0
SMTL,Simariatal,Unknown,Unknown,Unknown,Point,78.3042595734,25.9219956094,0,4,1,0,0,0,0
AEH,Anant Paith,Unknown,Unknown,Unknown,Point,78.2761320917,25.9553895013,0,3,2,0,0,0,0
FRH,Farhatnagar,Uttar Pradesh,NR,"Farhatnagar, Uttar Pradesh",Point,80.143212,27.081164,0,3,1,0,0,0,0
GATD,Gautamdhara,Jharkhand,SER,"Gautamdhara, Jharkhand",Point,85.6329945703,23.3498809788,0,4,1,0,0,0,0
GEG,Gir Gadhara,Gujarat,WR,"Junagadh, Gujarat",Point,70.919246,20.906347,0,3,2,0,0,0,0
FLD,Phulad,Rajasthan,NWR,"State Highway 62, Rajasthan",Point,73.81311799999999,25.623979,0,3,1,0,0,0,0
GADM,Ganga Dham,Uttar Pradesh,NER,"Ganga Dham, Uttar Pradesh",Point,81.930509,27.20976,0,4,2,0,0,0,0
DTR,Dhamtari,Chhattisgarh,SECR,"Dhamtari, Chhattisgarh",Point,81.550321,20.714515,0,3,1,0,0,0,0
DRW,Dharewada,Gujarat,WR,"Unjha, Gujarat",Point,72.378575,23.960816,0,3,1,0,0,0,0
KZQ,Khimel,Rajasthan,NWR,"Jawai Bandh, Rajasthan",Point,73.279577,25.300189,0,3,1,0,0,0,0
HDU,Hardua,Unknown,Unknown,Unknown,Point,80.2834127417,23.9150542164,0,3,1,0,0,0,0
HDW,Haldwani,Uttarakhand,NER,"Haldwani, Uttarakhand",Point,79.533732,29.215097,0,3,1,0,0,0,0
AKT,Akaltara,Unknown,Unknown,Unknown,Point,82.422049,22.029121,0,3,1,0,0,0,0
HBU,Halbarga,Karnataka,SCR,"Halbarga, Karnataka",Point,77.298175,17.988470000000003,0,3,1,0,0,0,0
GNH,Gangakher,Maharashtra,SCR,"State Highway 217, Maharashtra",Point,76.755511,18.973377,0,3,1,0,0,0,0
NIA,Naila,Unknown,Unknown,Unknown,Point,82.56458900000001,22.022964,0,3,1,0,0,0,0
KMGE,Kumahu,Unknown,Unknown,Unknown,Point,83.946305,24.976944,0,4,1,0,0,0,0
SSG,Shiu Sagar Road,Unknown,Unknown,Unknown,Point,83.895453,24.999465,0,3,3,0,1,0,0
CPH,Champa,Unknown,Unknown,Unknown,Point,82.665149,22.034731,0,3,1,0,0,0,0
GPX,Gautampura Road,Madhya Pradesh,WR,"Barnagar, Madhya Pradesh",Point,75.68198989999999,23.2008894,0,3,2,0,1,0,0
RGQ,Raigadh Road,Gujarat,NWR,"National Highway 8, Gujarat",Point,73.183592,23.596666,0,3,2,0,1,0,0
GS,Godhaneshwar,Gujarat,WR,"Bagodara Dholka Link Rd, Gujarat",Point,72.36834,22.68118,0,2,1,0,0,0,0
GLH,Gulaothi,Uttar Pradesh,NR,"Gulaothi, Uttar Pradesh",Point,77.801799,28.582962,0,3,1,0,0,0,0
HNB,Hasanabad,West Bengal,ER,"Taki, West Bengal",Point,88.912953,22.570155,0,3,1,0,0,0,0
PUA,Pulla,Unknown,Unknown,Unknown,Point,81.324846,16.809911,0,3,1,0,0,0,0
KKRM,Kaikoram,Unknown,Unknown,Unknown,Point,81.36421899999999,16.815341,0,4,1,0,0,0,0
JER,Jaleswar,Unknown,Unknown,Unknown,Point,87.22049100000001,21.79749,0,3,1,0,0,0,0
FYZ,Faizullapur,Unknown,Unknown,Unknown,Point,80.893347,25.869213,0,3,1,0,0,0,0
ED,Erode Jn,Unknown,Unknown,Unknown,Point,77.72593400000001,11.327682,0,2,2,1,0,0,0
HR,Harpalu,Rajasthan,NWR,"Bahal, Rajasthan",Point,75.4910470972,28.5690538031,0,2,1,0,0,0,0
RUB,Rasulabad,Unknown,Unknown,Unknown,Point,80.977088,25.826999,0,3,1,0,0,0,0
SNIE,Sath Naraini,Unknown,Unknown,Unknown,Point,81.03942,25.795325,0,4,2,0,0,0,0
DUR,Desur,Karnataka,SWR,"Desur, Karnataka",Point,74.49801,15.754344,0,3,1,0,0,0,0
CNC,Chinchli,Karnataka,SWR,"Belagavi, Karnataka",Point,74.855323,16.571696999999997,0,3,1,0,0,0,0
MTB,Matlabpur,Unknown,Unknown,Unknown,Point,78.656727,28.989821,0,3,1,0,0,0,0
KNT,Kanth,Unknown,Unknown,Unknown,Point,78.621471,29.059768,0,3,1,0,0,0,0
MWE,Mewa Nawada,Unknown,Unknown,Unknown,Point,78.613167,29.118385,0,3,2,0,0,0,0
SEO,Seohara,Unknown,Unknown,Unknown,Point,78.580977,29.204807,0,3,1,0,0,0,0
CAJ,Chakraj Mal,Unknown,Unknown,Unknown,Point,78.536047,29.249784,0,3,2,0,0,0,0
DPR,Dhampur,Unknown,Unknown,Unknown,Point,78.501588,29.305446,0,3,1,0,0,0,0
HBW,Habibwala,Unknown,Unknown,Unknown,Point,78.47897300000001,29.349034,0,3,1,0,0,0,0
GKD,Gadhakda,Gujarat,WR,"Gadhakada Rd, Gujarat",Point,71.38171899999999,21.237962,0,3,1,0,0,0,0
PNI,Puraini,Unknown,Unknown,Unknown,Point,78.445574,29.388929,0,3,1,0,0,0,0
NGG,Nagina,Unknown,Unknown,Unknown,Point,78.424119,29.437919,0,3,1,0,0,0,0
BEK,Bundki,Unknown,Unknown,Unknown,Point,78.3932854,29.522577,0,3,1,0,0,0,0
GYN,Gyanpur Road,Uttar Pradesh,NER,"Bhadohi District, Uttar Pradesh",Point,82.4272883557,25.280144011,0,3,2,0,1,0,0
MSDR,Murshadpur,Unknown,Unknown,Unknown,Point,78.3756456903,29.57239523,0,4,1,0,0,0,0
NBD,Najibabad Jn,Unknown,Unknown,Unknown,Point,78.335733,29.60354,0,3,2,1,0,0,0
FZL,Fazalpur,Unknown,Unknown,Unknown,Point,78.27795372130001,29.5937410175,0,3,1,0,0,0,0
CNK,Chandok,Unknown,Unknown,Unknown,Point,78.152782,29.576786,0,3,1,0,0,0,0
BLW,Balawali,Unknown,Unknown,Unknown,Point,78.1124328,29.6274345,0,3,1,0,0,0,0
RSI,Raisi,Unknown,Unknown,Unknown,Point,78.0664335504,29.6928321018,0,3,1,0,0,0,0
AAR,Adesar,Gujarat,WR,"Dist. Kachchh, Gujarat",Point,70.9720505023,23.5529783995,0,3,1,0,0,0,0
HRR,Harihar,Karnataka,SWR,"Harihar, Karnataka",Point,75.812314,14.515431,0,3,1,0,0,0,0
GVA,Ganguwada,Andhra Pradesh,ECOR,"Ganguwada, Andhra Pradesh",Point,84.1072235,18.66763705,0,3,1,0,0,0,0
GUX,Gurhi,Madhya Pradesh,SCR,"Khandwa, Madhya Pradesh",Point,76.58074500000001,21.629554,0,3,1,0,0,0,0
HMH,Hanumangarh Jn,Rajasthan,NWR,"Hanumangarh, Rajasthan",Point,74.297633,29.614904,0,3,2,1,0,0,0
AAM,Angadippuram,Kerala,SR,"Angadipuram, Kerala",Point,76.20734300000001,10.979489,0,3,1,0,0,0,0
PHR,Phillaur Jn,Unknown,Unknown,Unknown,Point,75.78576100000001,31.016907,0,3,2,1,0,0,0
LDW,Ladhowal,Unknown,Unknown,Unknown,Point,75.78581100000001,31.016957,0,3,1,0,0,0,0
LDH,Ludhiana Jn,Unknown,Unknown,Unknown,Point,75.84787299999999,30.912367,0,3,2,1,0,0,0
BHOI,Dhandarikalan Block Hut,Unknown,Unknown,Unknown,Point,75.87188,30.894741,0,4,3,0,0,0,0
HKR,Kiwar Khed,Maharashtra,SCR,"State Highway 194, Maharashtra",Point,76.8767,21.186952,0,3,2,0,0,0,0
DDL,Dhandari Kalan,Unknown,Unknown,Unknown,Point,75.90949099999999,30.874477,0,3,2,0,0,0,0
SNL,Sanahwal,Unknown,Unknown,Unknown,Point,75.9795,30.837436,0,3,1,0,0,0,0
DOA,Doraha,Unknown,Unknown,Unknown,Point,76.04330300000001,30.804137,0,3,1,0,0,0,0
JSPN,Jaspalon,Unknown,Unknown,Unknown,Point,76.0801522656,30.7847375851,0,4,1,0,0,0,0
CHA,Chawapall,Unknown,Unknown,Unknown,Point,76.127464975,30.7594625741,0,3,1,0,0,0,0
KNN,Khanna,Unknown,Unknown,Unknown,Point,76.22513400000001,30.707973,0,3,1,0,0,0,0
GVG,Govindgarh,Unknown,Unknown,Unknown,Point,76.2970739075,30.6694834261,0,3,1,0,0,0,0
SIR,Sirhind Jn,Unknown,Unknown,Unknown,Point,76.383194,30.624222,0,3,2,1,0,0,0
SDY,Sadhoo Garh,Unknown,Unknown,Unknown,Point,76.44847259640001,30.5828632034,0,3,2,0,0,0,0
SBJ,Sarai Banjara,Unknown,Unknown,Unknown,Point,76.515682,30.538386,0,3,2,0,0,0,0
RPJ,Rajpura Jn,Unknown,Unknown,Unknown,Point,76.5940201901,30.486458949,0,3,2,1,0,0,0
SMU,Sambhu,Unknown,Unknown,Unknown,Point,76.684143667,30.4290274715,0,3,1,0,0,0,0
CDL,Chodiala,Unknown,Unknown,Unknown,Point,77.738546,29.896398,0,3,1,0,0,0,0
IQB,Iqbalpur,Unknown,Unknown,Unknown,Point,77.803799,29.875114,0,3,1,0,0,0,0
RK,Roorkee,Unknown,Unknown,Unknown,Point,77.87417,29.851671,0,2,1,0,0,0,0
DNRA,Dhandhera,Unknown,Unknown,Unknown,Point,77.9019227979,29.8434029837,0,4,1,0,0,0,0
DSNI,Dausni,Unknown,Unknown,Unknown,Point,77.979636,29.784745,0,4,1,0,0,0,0
CPT,Channapatna,Karnataka,SWR,"Channapatna, Karnataka",Point,77.203824,12.659673000000002,0,3,1,0,0,0,0
KGF,Kathghar,Unknown,Unknown,Unknown,Point,78.796689,28.826066,0,3,1,0,0,0,0
DLP,Dalpatpur,Unknown,Unknown,Unknown,Point,78.87718699999999,28.820438,0,3,1,0,0,0,0
MPH,Mundha Pande,Unknown,Unknown,Unknown,Point,78.939038,28.800367,0,3,2,0,0,0,0
RMU,Rampur,Unknown,Unknown,Unknown,Point,79.023419,28.778863,0,3,1,0,0,0,0
SAR,Shahzad Nagar,Unknown,Unknown,Unknown,Point,79.05214699999999,28.750033,0,3,2,0,0,0,0
DAM,Dhamora,Unknown,Unknown,Unknown,Point,79.087745,28.707129,0,3,1,0,0,0,0
AABH,Ambika Bhawani Halt,Unknown,Unknown,Unknown,Point,84.9690033484,25.751433665,0,4,3,0,0,0,0
DGA,Dighwara,Unknown,Unknown,Unknown,Point,85.003168,25.743938,0,3,1,0,0,0,0
STLR,Sitalpur,Unknown,Unknown,Unknown,Point,85.03663800000001,25.76874,0,4,1,0,0,0,0
JDR,Jiwdhara,Bihar,ECR,"Jiwdhara, Bihar",Point,84.906874,26.581722,0,3,1,0,0,0,0
AWP,Aghwanpur,Unknown,Unknown,Unknown,Point,78.702865,28.939542,0,3,1,0,0,0,0
KIA,Khari Amrapur,Gujarat,WR,"State Highway 237, Gujarat",Point,72.913948,23.390711,0,3,2,0,0,0,0
IMR,Ibrahimpur,Karnataka,SWR,"Bijapur, Karnataka",Point,75.719362,16.802926,0,3,1,0,0,0,0
JND,Junagadh Jn,Gujarat,WR,"Junagadh, Gujarat",Point,70.457612,21.530606,0,3,2,1,0,0,0
JA,Jaliya,Gujarat,WR,"Ranuja Village Rd, Gujarat",Point,71.6324910046,21.8163569109,0,2,1,0,0,0,0
IDP,Indupalli,Andhra Pradesh,SCR,"Krishna, Andhra Pradesh",Point,80.87706899999999,16.479094,0,3,1,0,0,0,0
DBL,Dodbele,Karnataka,SWR,"National Highway 4, Karnataka",Point,77.351193,13.216441,0,3,1,0,0,0,0
KVD,Khurmabad Road,Unknown,Unknown,Unknown,Point,83.848303,25.021489000000003,0,3,2,0,1,0,0
JBO,Jamadobu,Jharkhand,SER,"Jharia, Jharkhand",Point,86.410031,23.715139,0,3,1,0,0,0,0
KTQ,Kudra,Unknown,Unknown,Unknown,Point,83.79337100000001,25.048552,0,3,1,0,0,0,0
PSE,Pusauli,Unknown,Unknown,Unknown,Point,83.72151,25.097235,0,3,1,0,0,0,0
STPT,Sitampet,Unknown,Unknown,Unknown,Point,81.211206,16.797409,0,4,1,0,0,0,0
JHBN,Jhamatpur Baharan,West Bengal,ER,"Goai, West Bengal",Point,88.098669,23.749987,0,4,2,0,0,0,0
UBC,Ambala City,Unknown,Unknown,Unknown,Point,76.763996,30.378497,0,3,2,0,0,0,0
JIT,Jirat,West Bengal,ER,"Jirat, West Bengal",Point,88.461461,23.098255,0,3,1,0,0,0,0
BMD,Bhimadolu,Unknown,Unknown,Unknown,Point,81.26109679,16.80848173,0,3,1,0,0,0,0
JDD,Jerthi Dadhia,Rajasthan,NWR,"Mdr 87, Rajasthan",Point,75.2010774705559,27.731618001396782,0,3,2,0,0,0,0
LXD,Lakshannath Road,Unknown,Unknown,Unknown,Point,87.25095300000001,21.842011,0,3,2,0,1,0,0
JGJN,Jugijan,Assam,NFR,"National Highway 36, Assam",Point,92.81771,26.028001,0,4,1,0,0,0,0
JMI,Jamguri,Assam,NFR,"National Highway 39, Assam",Point,93.9604479663,26.3877071452,0,3,1,0,0,0,0
CSM,Cansaulim,Goa,SWR,"Arossim Beach Rd, Goa",Point,73.897226,15.344532,0,3,1,0,0,0,0
BPW,Burhpura,Unknown,Unknown,Unknown,Point,78.42955,25.211179,0,3,1,0,0,0,0
IDM,Indemau,Uttar Pradesh,NR,"Indemau, Uttar Pradesh",Point,80.767021,26.318344,0,3,1,0,0,0,0
KSR,Kasturi,Unknown,Unknown,Unknown,Point,81.728838,27.139983,0,3,1,0,0,0,0
MIR,Maijapur,Unknown,Unknown,Unknown,Point,81.773788,27.141734,0,3,1,0,0,0,0
JNO,Junnor Deo,Madhya Pradesh,CR,"Dongar Parasia, Madhya Pradesh",Point,78.592052,22.191279,0,3,2,0,0,0,0
GDK,Gonda Kachahri,Unknown,Unknown,Unknown,Point,81.93402688110001,27.1402272205,0,3,2,0,0,0,0
BRCK,Baruachak,Unknown,Unknown,Unknown,Point,82.055181,27.122672,0,4,1,0,0,0,0
JOL,Jogal,Orissa,?,"Jogal, Orissa",Point,86.88271399999999,21.696442,0,3,1,0,0,0,0
ICL,Ichauli,Uttar Pradesh,NCR,"Maudaha, Uttar Pradesh",Point,80.178833,25.520955,0,3,1,0,0,0,0
MOTG,Motiganj,Unknown,Unknown,Unknown,Point,82.103635,27.101387,0,4,1,0,0,0,0
JLHI,Jhilahi,Unknown,Unknown,Unknown,Point,82.17287785639999,27.0726040433,0,4,1,0,0,0,0
KAU,Kachna,West Bengal,NFR,"National Highway 34, West Bengal",Point,88.0246425354,25.6337383216,0,3,1,0,0,0,0
BBHL,Bela Bela,Unknown,Unknown,Unknown,Point,81.2487596802,26.137192375,0,4,2,0,0,0,0
JOA,Janwal,Maharashtra,SCR,"Latur, Maharashtra",Point,76.75514700000001,18.55964,0,3,1,0,0,0,0
JADR,Jadar,Gujarat,WR,"State Highway 9, Gujarat",Point,72.952369,23.745814000000003,0,4,1,0,0,0,0
JJW,Jojwa,Gujarat,WR,"Vadodara, Gujarat",Point,73.642431,22.253213,0,3,1,0,0,0,0
MUR,Mankapur Jn,Unknown,Unknown,Unknown,Point,82.227648,27.039058,0,3,2,1,0,0,0
LKNR,Lakhpat Nagar,Unknown,Unknown,Unknown,Point,82.2775887885,27.0276257858,0,4,2,0,0,0,0
MSW,Maskanwa,Unknown,Unknown,Unknown,Point,82.3597396039,27.0013792301,0,3,1,0,0,0,0
ANU,Anangur,Unknown,Unknown,Unknown,Point,77.820053,11.39694,0,3,1,0,0,0,0
POE,Pawapuri Road Halt,Unknown,Unknown,Unknown,Point,85.512918,25.160225,0,3,3,0,1,0,0
SNC,S Narayan Chpla,Unknown,Unknown,Unknown,Point,82.3961659851,26.9810021017,0,3,3,0,0,0,0
HSB,Hasanbazar Halt,Bihar,ECR,"Hasan Bazar, Bihar",Point,84.34929577759999,25.2665823122,0,3,2,0,0,0,0
BNGY,Bahman Jyotia,Unknown,Unknown,Unknown,Point,82.4273550012,26.9662637829,0,4,2,0,0,0,0
PATI,Parsa Tewari,Unknown,Unknown,Unknown,Point,82.45215499999999,26.95565,0,4,2,0,0,0,0
JI,Jhusi,Uttar Pradesh,NER,"Nh 2, Uttar Pradesh",Point,81.91664399999999,25.431145,0,2,1,0,0,0,0
GOVR,Govindnagar,Unknown,Unknown,Unknown,Point,82.707468,26.864223000000003,0,4,1,0,0,0,0
BST,Basti,Unknown,Unknown,Unknown,Point,82.77005899999999,26.815678,0,3,1,0,0,0,0
ORW,Orwara,Unknown,Unknown,Unknown,Point,82.83031100000001,26.802389,0,3,1,0,0,0,0
CRV,Chureb,Unknown,Unknown,Unknown,Point,82.97763599999999,26.782155,0,3,1,0,0,0,0
MOW,Mananwala,Unknown,Unknown,Unknown,Point,74.96656200000001,31.612827000000003,0,3,1,0,0,0,0
JNL,Jandiala,Unknown,Unknown,Unknown,Point,75.05441200000001,31.589979,0,3,1,0,0,0,0
TRA,Tangra,Unknown,Unknown,Unknown,Point,75.107232,31.576426,0,3,1,0,0,0,0
JSH,Jaswantgarh,Rajasthan,NWR,"Sujangarh, Rajasthan",Point,74.44396800000001,27.668988,0,3,1,0,0,0,0
BTR,Butari,Unknown,Unknown,Unknown,Point,75.183274,31.556444,0,3,1,0,0,0,0
BBKR,Baba Bakalaraya,Unknown,Unknown,Unknown,Point,75.238827,31.541835000000003,0,4,2,0,0,0,0
BEAS,Beas,Unknown,Unknown,Unknown,Point,75.2908085,31.5193738,0,4,1,0,0,0,0
DIW,Dhilwan,Unknown,Unknown,Unknown,Point,75.335011,31.498953,0,3,1,0,0,0,0
RYM,Ramidi Halt,Unknown,Unknown,Unknown,Point,75.4078429907,31.4659508779,0,3,2,0,0,0,0
JKI,Kauriaa Jungle,Uttar Pradesh,?,"National Highway 29, Uttar Pradesh",Point,83.29979800000001,26.881072,0,3,2,0,0,0,0
HMR,Hamira,Unknown,Unknown,Unknown,Point,75.432702,31.45628,0,3,1,0,0,0,0
KRE,Kartarpur,Unknown,Unknown,Unknown,Point,75.492544,31.432388,0,3,1,0,0,0,0
SRX,Sura Nussi,Unknown,Unknown,Unknown,Point,75.541964,31.380553,0,3,2,0,0,0,0
POM,Punthottam,Unknown,Unknown,Unknown,Point,79.65731229,10.93262802,0,3,1,0,0,0,0
LOHA,Loha,Rajasthan,NWR,"Ratangarh, Rajasthan",Point,74.619424,28.006921,0,4,1,0,0,0,0
BBSL,Baba Sodhal Nagar,Unknown,Unknown,Unknown,Point,75.5648681348,31.3530203474,0,4,3,0,0,0,0
JUC,Jalandhar City,Unknown,Unknown,Unknown,Point,75.591499,31.331665,0,3,2,0,0,0,0
KBA,Kurabalakota,Andhra Pradesh,SCR,"Kurabalakota Railway Station, Andhra Pradesh",Point,78.48584299999999,13.666284,0,3,1,0,0,0,0
JRC,Jalandhar Cant,Unknown,Unknown,Unknown,Point,75.63210600000001,31.306235,0,3,2,0,0,0,0
ABE,Ambikeshwar,Madhya Pradesh,NCR,"State Highway 2, Madhya Pradesh",Point,77.963828,26.368567,0,3,1,0,0,0,0
CEU,Chiheru,Unknown,Unknown,Unknown,Point,75.70669127869999,31.262694745,0,3,1,0,0,0,0
MLIH,Mauli Halt,Unknown,Unknown,Unknown,Point,75.769234,31.175,0,4,2,0,0,0,0
MAUL,Maula Ali,Unknown,Unknown,Unknown,Point,75.769544,31.17531,0,4,2,0,0,0,0
GRY,Goraya,Unknown,Unknown,Unknown,Point,75.77419300000001,31.129722,0,3,1,0,0,0,0
JTO,Jutogh,Himachal Pradesh,NR,"Shimla, Himachal Pradesh",Point,77.122043,31.100734,0,3,1,0,0,0,0
JPS,Jamalpur Shaikhan,Punjab,?,"Mdr 101, Punjab",Point,75.857438,29.699949,0,3,2,0,0,0,0
BTTN,Bhatian,Unknown,Unknown,Unknown,Point,75.780007,31.071444,0,4,1,0,0,0,0
PPDA,Panchpatia Deoria Halt,Unknown,Unknown,Unknown,Point,84.9361293799,25.7687306557,0,4,3,0,0,0,0
KHBV,Kharbao,Maharashtra,CR,"Thane, Maharashtra",Point,72.983444,19.297247,0,4,1,0,0,0,0
KEV,Kela Devi,Rajasthan,WCR,"Bharatpur, Rajasthan",Point,77.329069,27.015612,0,3,2,0,0,0,0
KDE,Koradacheri,Tamil Nadu,SR,"Koradacheri, Tamil Nadu",Point,79.49003499999999,10.771022,0,3,1,0,0,0,0
SHGN,Shri Ghasinagar,Unknown,Unknown,Unknown,Point,76.6268054126,27.0865148373,0,4,2,0,0,0,0
QGT,Kolaghat,Unknown,Unknown,Unknown,Point,87.879653656,22.4343309193,0,3,1,0,0,0,0
BW,Biwai,Unknown,Unknown,Unknown,Point,76.6960924713,27.1106230397,0,2,1,0,0,0,0
KHM,Kusmhi,Unknown,Unknown,Unknown,Point,83.453837,26.72824,0,3,1,0,0,0,0
NYN,Naini,Unknown,Unknown,Unknown,Point,81.86004199999999,25.393138,0,3,1,0,0,0,0
CTHR,Chitahra,Madhya Pradesh,WCR,"Mdr 11, Madhya Pradesh",Point,80.842854,24.862627000000003,0,4,1,0,0,0,0
STA,Satna,Madhya Pradesh,WCR,"Satna, Madhya Pradesh",Point,80.827717,24.568619,0,3,1,0,0,0,0
KALS,Kalas Halt,Karnataka,SWR,"State Highway 6, Karnataka",Point,75.3899776996,15.08644671,0,4,2,0,0,0,0
KLPM,Kailasapuram,Tamil Nadu,SR,"Thattaparai, Tamil Nadu",Point,77.9946102,8.847387005,0,4,1,0,0,0,0
KHNP,Khanapur Deccan,Karnataka,SCR,"State Highway 4, Karnataka",Point,77.382161,17.942175,0,4,2,0,0,0,0
KBSH,Krishna Ballabh,Jharkhand,ER,"Giridih, Jharkhand",Point,86.482965,24.255819,0,4,2,0,0,0,0
KEMA,Kukma,Gujarat,WR,"Kutch, Gujarat",Point,69.766265,23.217031,0,4,1,0,0,0,0
KKDI,Karaikkudi Junction,Tamil Nadu,SR,"Ariyakudi Road, Tamil Nadu",Point,78.79331499999999,10.068518,0,4,2,1,0,0,0
JXN,Jirona,Maharashtra,?,"Nanded, Maharashtra",Point,77.95139499999999,19.407451,0,3,1,0,0,0,0
KJZ,Karonji,Chhattisgarh,SECR,"Devipur, Chhattisgarh",Point,82.923013,23.282475,0,3,1,0,0,0,0
KDZ,Kandaghat,Himachal Pradesh,NR,"Kandhaghat, Himachal Pradesh",Point,77.106996,30.965544,0,3,1,0,0,0,0
NPB,Nagapattinam Beach,Tamil Nadu,SR,"Nagapattinam, Tamil Nadu",Point,79.848443,10.764487,0,3,2,0,0,0,0
MNU,Mundikota,Unknown,Unknown,Unknown,Point,79.834833,21.372513,0,3,1,0,0,0,0
JWN,Jiwa Arain,Punjab,NR,"State Highway 20, Punjab",Point,74.355654,30.673761,0,3,2,0,0,0,0
KWN,Kachewani,Unknown,Unknown,Unknown,Point,79.981657,21.43031,0,3,1,0,0,0,0
AGN,Amgaon,Unknown,Unknown,Unknown,Point,80.3746491022,21.3612928554,0,3,1,0,0,0,0
LNMA,Lnma,Unknown,Unknown,Unknown,Unknown,,,1,4,1,0,0,0,0
DURG,Durg,Unknown,Unknown,Unknown,Point,81.291837,21.200327,0,4,1,0,0,0,0
KPNA,Kapan,Unknown,Unknown,Unknown,Point,82.494827,22.026018,0,4,1,0,0,0,0
KDTR,Kirodimalnagar,Unknown,Unknown,Unknown,Point,83.33250699999999,21.926994,0,4,1,0,0,0,0
MTGE,Muthani,Unknown,Unknown,Unknown,Point,83.61914300000001,25.173237,0,4,1,0,0,0,0
SPF,Stuartpuram,Unknown,Unknown,Unknown,Point,80.406913,15.868003,0,3,1,0,0,0,0
EE,Eluru,Unknown,Unknown,Unknown,Point,81.11976200000001,16.717816,0,2,1,0,0,0,0
DEL,Denduluru,Unknown,Unknown,Unknown,Point,81.18047200000001,16.781406,0,3,1,0,0,0,0
AGV,Angua,Unknown,Unknown,Unknown,Point,87.26992299999999,21.892582,0,3,1,0,0,0,0
DNT,Dantan,Unknown,Unknown,Unknown,Point,87.284055,21.930376,0,3,1,0,0,0,0
KHTN,Khutauna,Bihar,ECR,"Khutuana, Bihar",Point,86.397414,26.494365,0,4,1,0,0,0,0
BBU,Bhabua Road,Unknown,Unknown,Unknown,Point,83.618913,25.173007,0,3,2,0,1,0,0
KJC,Kasganj City,Uttar Pradesh,NER,"State Highway 33, Uttar Pradesh",Point,78.658063,27.814972,0,3,2,0,0,0,0
DGO,Durgauti,Unknown,Unknown,Unknown,Point,83.539684,25.207897000000003,0,3,1,0,0,0,0
MVPM,Mavelipalaiyam,Unknown,Unknown,Unknown,Point,77.89921204650001,11.4809140096,0,4,1,0,0,0,0
SGE,Sankaridurg,Unknown,Unknown,Unknown,Point,77.870439,11.445732,0,3,1,0,0,0,0
DCX,Dhanichha,Unknown,Unknown,Unknown,Point,83.4908372314,25.2271654039,0,3,1,0,0,0,0
KID,Khairar Jn,Uttar Pradesh,NCR,"Nh-76 Banda(05192-224813), Uttar Pradesh",Point,80.236073,25.451955,0,3,2,1,0,0,0
KHOH,Khoh,Uttar Pradesh,NCR,"National Highway 76, Uttar Pradesh",Point,80.979976,25.209491000000003,0,4,1,0,0,0,0
KLI,Kauli,Punjab,NR,"National Highway 64, Punjab",Point,76.51987899999999,30.418388,0,3,1,0,0,0,0
KLAR,Kulpahar,Uttar Pradesh,NCR,"Kulpahar, Uttar Pradesh",Point,79.63751,25.29552,0,4,1,0,0,0,0
KMS,Karamnasa,Unknown,Unknown,Unknown,Point,83.430892,25.239738,0,3,1,0,0,0,0
KHBJ,Khanna Banjari,Madhya Pradesh,WCR,"State Highway 11, Madhya Pradesh",Point,80.822716,23.897087,0,4,2,0,0,0,0
SYJ,Saidraja,Unknown,Unknown,Unknown,Point,83.35118,25.253531,0,3,1,0,0,0,0
GAQ,Ganj Khawaja,Unknown,Unknown,Unknown,Point,83.18436299999999,25.273922,0,3,2,0,0,0,0
FOCM,Flyover Cabin Mughalsarai,Unknown,Unknown,Unknown,Point,83.172391,25.289359,0,4,3,0,0,0,0
KCT,Kirakat,Uttar Pradesh,NER,"Jaunpur, Uttar Pradesh",Point,82.924798,25.645355,0,3,1,0,0,0,0
KLD,Khalilabad,Unknown,Unknown,Unknown,Point,83.055073,26.77453,0,3,1,0,0,0,0
MHH,Maghar,Unknown,Unknown,Unknown,Point,83.133741,26.750013,0,3,1,0,0,0,0
SIPR,Sihapar,Unknown,Unknown,Unknown,Point,83.16487227660001,26.757903231,0,4,1,0,0,0,0
SWA,Sahjanwa,Unknown,Unknown,Unknown,Point,83.2147,26.763075,0,3,1,0,0,0,0
MWH,Malwan,Unknown,Unknown,Unknown,Point,80.685594,26.017246,0,3,1,0,0,0,0
JTB,Jagatbela,Unknown,Unknown,Unknown,Point,83.278505,26.772224,0,3,1,0,0,0,0
KJS,Krishnarajasagar,Karnataka,SWR,"Mandya District, Karnataka",Point,76.56702899999999,12.401426,0,3,1,0,0,0,0
KLK,Kalka,Haryana,NR,"Kalka, Haryana",Point,76.931759,30.837667,0,3,1,0,0,0,0
PNS,Pillamshat,Unknown,Unknown,Unknown,Unknown,,,1,3,1,0,0,0,0
KKS,Kurasti Kalan,Unknown,Unknown,Unknown,Point,80.752455,25.955085,0,3,2,0,0,0,0
FTP,Fatehpur,Unknown,Unknown,Unknown,Point,80.801869,25.917489,0,3,1,0,0,0,0
DMG,Domingarh,Unknown,Unknown,Unknown,Point,83.341993,26.765251,0,3,1,0,0,0,0
BTK,Bankata,Unknown,Unknown,Unknown,Point,84.09492,26.265917,0,3,1,0,0,0,0
KKL,Kala Bakra,Punjab,NR,"Dhogri Rd, Punjab",Point,75.63034779659999,31.4751812122,0,3,2,0,0,0,0
BAGL,Baragopal,Unknown,Unknown,Unknown,Point,84.906765,25.765088,0,4,1,0,0,0,0
ATNR,Awatar Nagar,Unknown,Unknown,Unknown,Point,84.956774,25.764396,0,4,2,0,0,0,0
KHKT,Khotkhoti,Assam,NFR,"Golaghat Rd, Assam",Point,93.754761,25.952483,0,4,1,0,0,0,0
ARI,Antri,Unknown,Unknown,Unknown,Point,78.2266994458,26.0352337224,0,3,1,0,0,0,0
KDPS,Kadipur Sani Ha,Uttar Pradesh,NER,"Kadipur Sani, Uttar Pradesh",Point,80.779037,27.862753,0,4,3,0,0,0,0
KITN,Khiri Town,Uttar Pradesh,NER,"Kheri, Uttar Pradesh",Point,80.788481,27.902944,0,4,2,0,0,0,0
MNF,Manda Road,Unknown,Unknown,Unknown,Point,82.236678,25.162718,0,3,2,0,1,0,0
MZP,Mirzapur,Unknown,Unknown,Unknown,Point,82.56986900000001,25.13435,0,3,1,0,0,0,0
JHG,Jhingura,Unknown,Unknown,Unknown,Point,82.6513464526,25.1244746744,0,3,1,0,0,0,0
PRE,Pahara,Unknown,Unknown,Unknown,Point,82.7247816913,25.1197842638,0,3,1,0,0,0,0
DAP,Dagmagpur,Unknown,Unknown,Unknown,Point,82.800991,25.098881,0,3,1,0,0,0,0
CAR,Chunar,Unknown,Unknown,Unknown,Point,82.874703,25.103351,0,3,1,0,0,0,0
KYT,Kailahat,Unknown,Unknown,Unknown,Point,82.947581,25.155223,0,3,1,0,0,0,0
ARW,Ahraura Road,Unknown,Unknown,Unknown,Point,83.0188834607,25.1965007241,0,3,2,0,1,0,0
JEP,Jeonathpur,Unknown,Unknown,Unknown,Point,83.0618954504,25.2313981241,0,3,1,0,0,0,0
NEWC,New West Cabin,Unknown,Unknown,Unknown,Point,83.10921,25.27379,0,4,3,0,0,0,0
PRKD,Powerkheda,Unknown,Unknown,Unknown,Point,77.747363,22.673479,0,4,1,0,0,0,0
ITKL,Itayakalan,Unknown,Unknown,Unknown,Point,77.5462,23.049837,0,4,1,0,0,0,0
KOZ,Kosma,Uttar Pradesh,NCR,"Kosma, Uttar Pradesh",Point,78.837282,27.156663,0,3,1,0,0,0,0
MDDP,Mandi Dip,Unknown,Unknown,Unknown,Point,77.511077,23.093747,0,4,2,0,0,0,0
KTM,Kutralam,Tamil Nadu,SR,"Kuthalam, Tamil Nadu",Point,79.557389,11.069825000000002,0,3,1,0,0,0,0
NGN,Nandgaon,Unknown,Unknown,Unknown,Point,74.659526,20.307616,0,3,1,0,0,0,0
KTX,Katakhal Jn,Assam,NFR,"Hailakandi, Assam",Point,92.627067,24.83436,0,3,2,1,0,0,0
KRBA,Korba,Chhattisgarh,SECR,"Korba, Chhattisgarh",Point,82.71301299999999,22.337584,0,4,1,0,0,0,0
ET,Itarsi Jn,Unknown,Unknown,Unknown,Point,77.767128,22.608258,0,2,2,1,0,0,0
KSAR,Kudala Sangam,Karnataka,SWR,"Nh 13, Karnataka",Point,75.891059,16.306774,0,4,2,0,0,0,0
KIAT,Kyatsandra,Karnataka,SWR,"Tumkur, Karnataka",Point,77.1481127075,13.3161963923,0,4,1,0,0,0,0
KSPR,Kashipura Sarar,Unknown,Unknown,Unknown,Point,73.145838,22.120086,0,4,2,0,0,0,0
CNT,Contai Road,Unknown,Unknown,Unknown,Point,87.33984000000001,22.078584,0,3,2,0,1,0,0
KRMD,Kuarmunda,Orissa,SER,"Sundargarh, Orissa",Point,84.789851,22.286675,0,4,1,0,0,0,0
GEA,Ghatera,Unknown,Unknown,Unknown,Point,79.6733909,23.8293873,0,3,1,0,0,0,0
KQD,Khairatabad Dcn,Andhra Pradesh,SCR,"Hyderabad, Andhra Pradesh",Point,78.46165,17.414221,0,3,2,0,0,0,0
MHUL,Mehuwala Halt,Unknown,Unknown,Unknown,Point,75.31496800000001,29.411154,0,4,2,0,0,0,0
ORKI,Orki,Rajasthan,NR,"National Highway 15, Rajasthan",Point,73.891318,30.091597,0,4,1,0,0,0,0
HYA,Hadiaya,Punjab,NR,"Khudi Rd, Punjab",Point,75.477006,30.337054,0,3,1,0,0,0,0
MLQ,Malkera Junction,Jharkhand,SER,"National Highway 32, Jharkhand",Point,86.29694900000001,23.779733,0,3,2,1,0,0,0
KOHR,Kohir Deccan,Andhra Pradesh,SCR,"Telangana Region, Andhra Pradesh",Point,77.71197699999999,17.608886,0,4,2,0,0,0,0
HMQ,Himmatpura,Haryana,NR,"Tohana, Haryana",Point,75.860597,29.750497,0,3,1,0,0,0,0
NBKH,Naba Gram Kanku,West Bengal,ER,"Nabagram Kakurhati, West Bengal",Point,88.10026,23.661572,0,4,3,0,0,0,0
ABKA,Ambika Kalna,West Bengal,ER,"Kalna, West Bengal",Point,88.353984,23.211377,0,4,2,0,0,0,0
KMAE,Khamargachhi,West Bengal,ER,"Khamargachi, West Bengal",Point,88.44421,23.054229,0,4,1,0,0,0,0
IPPM,Ipurupalem,Unknown,Unknown,Unknown,Point,80.38512200000001,15.851913,0,4,1,0,0,0,0
KNNK,Kanina Khas,Haryana,NWR,"Mdr 124, Haryana",Point,76.300375,28.321249,0,4,2,0,0,0,0
NZD,Nuzvid,Unknown,Unknown,Unknown,Point,80.96152799999999,16.649931,0,3,1,0,0,0,0
KNH,Konch,Uttar Pradesh,NCR,"Kocha, Uttar Pradesh",Point,79.15770702,25.99510551,0,3,1,0,0,0,0
VAT,Vatlur,Unknown,Unknown,Unknown,Point,81.044473,16.69451,0,3,1,0,0,0,0
HOJ,Hamitonganj,West Bengal,NFR,"Hamiltonganj, West Bengal",Point,89.416841,26.688907,0,3,1,0,0,0,0
IPRA,Ipra,Unknown,Unknown,Unknown,Unknown,,,1,4,1,0,0,0,0
KMKD,Khamkhed,Unknown,Unknown,Unknown,Point,76.122339,20.904161,0,4,1,0,0,0,0
NSI,Nikursini,Unknown,Unknown,Unknown,Point,87.30618600000001,22.004654,0,3,1,0,0,0,0
KTKL,Kotli Kalan,Punjab,NR,"State Highway 12A, Punjab",Point,75.297550556,30.0411022365,0,4,2,0,0,0,0
JSRD,Jhankad Sarala Road,Orissa,?,"Jhankad, Orissa",Point,86.304284,20.290186,0,4,3,0,1,0,0
DPT,Dalpat Singhpur,Unknown,Unknown,Unknown,Point,73.524416,29.929458,0,3,2,0,0,0,0
BLDA,Belda,Unknown,Unknown,Unknown,Point,87.33691374,22.07144398,0,4,1,0,0,0,0
MAKR,Malkheri,Unknown,Unknown,Unknown,Point,78.223009,24.169924,0,4,1,0,0,0,0
DC,Magudanchavadi,Unknown,Unknown,Unknown,Point,77.987264,11.55092,0,2,1,0,0,0,0
BJQ,Baghora,Unknown,Unknown,Unknown,Point,78.2603362,24.1358767,0,3,1,0,0,0,0
KYE,Khurai,Unknown,Unknown,Unknown,Point,78.33112799999999,24.051525,0,3,1,0,0,0,0
SMRR,Sumreri,Unknown,Unknown,Unknown,Point,78.399411,24.006945,0,4,1,0,0,0,0
KOY,Kherol,Gujarat,WR,"State Highway 237, Gujarat",Point,72.934133,23.310434,0,3,1,0,0,0,0
JLM,Jaliya Math,Gujarat,WR,"State Highway 68, Gujarat",Point,72.877596,23.227583000000003,0,3,2,0,0,0,0
JRK,Jeruwa Khera,Unknown,Unknown,Unknown,Point,78.478729,23.973745,0,3,2,0,0,0,0
CV,Kaveri,Unknown,Unknown,Unknown,Point,77.760945,11.351027,0,2,1,0,0,0,0
ISH,Isarwara,Unknown,Unknown,Unknown,Point,78.548987,23.927214,0,3,1,0,0,0,0
CPMR,Cpmr,Unknown,Unknown,Unknown,Unknown,,,1,4,1,0,0,0,0
NOI,Nariaoli,Unknown,Unknown,Unknown,Point,78.604147,23.89567,0,3,1,0,0,0,0
KSI,Kosli,Haryana,NWR,"Tumna Rd, Haryana",Point,76.464704,28.411947,0,3,1,0,0,0,0
RTZ,Ratona,Unknown,Unknown,Unknown,Point,78.685372,23.83539,0,3,1,0,0,0,0
SGO,Saugor,Unknown,Unknown,Unknown,Point,78.74292,23.84735,0,3,1,0,0,0,0
KUV,Kundara,Kerala,SR,"Kundara, Kerala",Point,76.67854899999999,8.960373,0,3,1,0,0,0,0
DEC,Delhi Cantt,Delhi Nct,NR,"Mayapuri Industrial Area Phase Ii/Lajwanti Garden, Delhi Nct",Point,77.116577,28.613534,0,3,2,0,0,0,0
MKRN,Makronia,Unknown,Unknown,Unknown,Point,78.80807700000001,23.867050000000003,0,4,1,0,0,0,0
LDA,Lidhora Khurd,Unknown,Unknown,Unknown,Point,78.87232300000001,23.852972,0,3,2,0,0,0,0
KYX,Karhiya Bhadeli,Unknown,Unknown,Unknown,Point,79.50456299999999,23.858464,0,3,2,0,0,0,0
GTY,Gola Pati,Unknown,Unknown,Unknown,Point,79.738652,23.798776,0,3,2,0,0,0,0
SAO,Sagoni,Unknown,Unknown,Unknown,Point,79.8114389709,23.8118961525,0,3,1,0,0,0,0
SYA,Salaia,Unknown,Unknown,Unknown,Point,79.96911659119999,23.8460764217,0,3,1,0,0,0,0
KMLR,Kamalur,Chhattisgarh,ECOR,"Kamalur, Chhattisgarh",Point,81.276887,18.854521,0,4,1,0,0,0,0
MJGP,Majhgawan Phata,Unknown,Unknown,Unknown,Point,80.3474740967,23.8831332893,0,4,2,0,0,0,0
KMZ,Katni Murwara,Unknown,Unknown,Unknown,Point,80.4014844,23.8343563,0,3,2,0,0,0,0
KNPS,Kendposi,Jharkhand,SER,"National Highway 75, Jharkhand",Point,85.73248199999999,22.294845,0,4,1,0,0,0,0
BKO,Bindki Road,Unknown,Unknown,Unknown,Point,80.580557,26.116562,0,3,2,0,1,0,0
KSQ,Kanspur Gugauli,Unknown,Unknown,Unknown,Point,80.625838,26.074302,0,3,2,0,0,0,0
NGTN,Nagothane,Maharashtra,CR,"Raigad, Maharashtra",Point,73.14076899999999,18.539932,0,4,1,0,0,0,0
KNF,Khanudih,Jharkhand,SER,"Bokaro, Jharkhand",Point,86.19215700000001,23.820218,0,3,1,0,0,0,0
AGD,Agasod,Unknown,Unknown,Unknown,Point,78.216912,24.234023,0,3,1,0,0,0,0
KOA,Karonda,Unknown,Unknown,Unknown,Point,78.265477,24.330273,0,3,1,0,0,0,0
MXS,Mohasa,Unknown,Unknown,Unknown,Point,78.2889,24.378687,0,3,1,0,0,0,0
KORI,Khori,Haryana,NWR,"State Highway 26, Haryana",Point,76.498091,28.187268,0,4,1,0,0,0,0
DUA,Dhaura,Unknown,Unknown,Unknown,Point,78.321791,24.44965,0,3,1,0,0,0,0
JLN,Jakhalaun,Unknown,Unknown,Unknown,Point,78.341911,24.547359,0,3,1,0,0,0,0
JRO,Jiron,Unknown,Unknown,Unknown,Point,78.361937,24.608534,0,3,1,0,0,0,0
LAR,Lalitpur,Unknown,Unknown,Unknown,Point,78.395791,24.688222,0,3,1,0,0,0,0
DWA,Dailwara,Unknown,Unknown,Unknown,Point,78.392945,24.78059,0,3,1,0,0,0,0
JHA,Jakhaura,Unknown,Unknown,Unknown,Point,78.400513,24.870821,0,3,1,0,0,0,0
GKB,Ghataka Varana,Unknown,Unknown,Unknown,Point,76.160353,25.506883,0,3,2,0,0,0,0
LRD,Lar Road,Uttar Pradesh,NER,"Deoria, Uttar Pradesh",Point,83.91018299999999,26.21389,0,3,2,0,1,0,0
LHM,Lehra Muhabbat,Punjab,NR,"National Highway 64, Punjab",Point,75.162817,30.236037,0,3,2,0,0,0,0
JL,Jalgaon Jn,Unknown,Unknown,Unknown,Point,75.56287499999999,21.018115,0,2,2,1,0,0,0
ARE,Arnetha,Unknown,Unknown,Unknown,Point,76.01867416990001,25.3897784806,0,3,1,0,0,0,0
LBG,Limbgaon,Maharashtra,SCR,"Huzur Sahib Nanded, Maharashtra",Point,77.2061342529,19.176458098,0,3,1,0,0,0,0
KPTN,Keshorai Patan,Unknown,Unknown,Unknown,Point,75.937733,25.324522,0,4,2,0,0,0,0
GNCN,Gurla N Cabin,Unknown,Unknown,Unknown,Point,75.9046559998,25.2972303873,0,4,3,0,0,0,0
HPR,Hirapur,Unknown,Unknown,Unknown,Point,74.9366600031,20.424540226700003,0,3,1,0,0,0,0
GQLN,Gurla N,Unknown,Unknown,Unknown,Point,75.90029863459999,25.2936031538,0,4,2,0,0,0,0
MASK,Maisar Khana,Punjab,NR,"State Highway 12A, Punjab",Point,75.13917000000001,30.099805,0,4,2,0,0,0,0
LKBL,Lakhabawal,Gujarat,WR,"Jamnagar, Gujarat",Point,69.99951399999999,22.409215,0,4,1,0,0,0,0
GQLW,Gurla W,Unknown,Unknown,Unknown,Point,75.8848308038,25.2903301845,0,4,2,0,0,0,0
KZY,Kayalpattinam,Tamil Nadu,SR,"Arumuganeri, Tamil Nadu",Point,78.09973,8.566912,0,3,1,0,0,0,0
GQL,Gurla,Unknown,Unknown,Unknown,Point,75.88526800000001,25.270233,0,3,1,0,0,0,0
SNJL,Sanjali,Unknown,Unknown,Unknown,Point,72.98861337459999,21.5758091157,0,4,1,0,0,0,0
XX-CLDO,Xx-Cldo,Unknown,Unknown,Unknown,Unknown,,,1,7,1,0,0,1,0
DDYX,Ddyx,Unknown,Unknown,Unknown,Unknown,,,1,4,1,0,0,0,0
KURO,Korari,Uttar Pradesh,NR,"State Highway 38, Uttar Pradesh",Point,80.529002,26.48788,0,4,1,0,0,0,0
XX-SUNB,Xx-Sunb,Unknown,Unknown,Unknown,Unknown,,,1,7,1,0,0,1,0
KSB,Kosamba Jn,Unknown,Unknown,Unknown,Point,72.95459799999999,21.464052,0,3,2,1,0,0,0
KCCN,Kccn,Unknown,Unknown,Unknown,Point,75.879265,25.239081,0,4,1,0,0,0,0
MNVL,Mnvl,Unknown,Unknown,Unknown,Unknown,,,1,4,1,0,0,0,0
KMNP,Kishan Manpura,Rajasthan,NWR,"State Highway 19, Rajasthan",Point,75.504945,27.299546000000003,0,4,2,0,0,0,0
STN,Sitarampur,Unknown,Unknown,Unknown,Point,86.896472,23.723864,0,3,1,0,0,0,0
TNW,Thapar Nagar,Unknown,Unknown,Unknown,Point,86.70137,23.769198,0,3,2,0,0,0,0
MAI,Mehsi,Bihar,ECR,"Mehsi, Bihar",Point,85.096319,26.354898,0,3,1,0,0,0,0
LMT,Almatti,Karnataka,SWR,"Bijapur, Karnataka",Point,75.90050000000001,16.3459,0,3,1,0,0,0,0
KXK,Kharkhauda,Uttar Pradesh,NR,"State Highway 18, Uttar Pradesh",Point,77.73904300000001,28.833445,0,3,1,0,0,0,0
LKDU,Lankalakoderu,Andhra Pradesh,SCR,"Lankala Koderu, Andhra Pradesh",Point,81.68124399999999,16.534517,0,4,1,0,0,0,0
ABKP,Ambikapur,Chhattisgarh,SECR,"Surguja, Chhattisgarh",Point,83.14510899999999,23.137032,0,4,1,0,0,0,0
LM,Limbdi,Gujarat,WR,"Limbdi, Gujarat",Point,71.789599,22.56604,0,2,1,0,0,0,0
LGO,Lalgopalganj,Uttar Pradesh,NR,"Lal Gopalganj, Uttar Pradesh",Point,81.630185,25.642195,0,3,1,0,0,0,0
CI,Chhapra Kacheri,Unknown,Unknown,Unknown,Point,84.74709499999999,25.785987,0,2,2,0,0,0,0
GJH,Goldinganj,Unknown,Unknown,Unknown,Point,84.827254,25.754174,0,3,1,0,0,0,0
KGWD,Kagwad,Unknown,Unknown,Unknown,Unknown,,,1,4,1,0,0,0,0
LAP,Lohapur,West Bengal,ER,"Sagardighi Railway Station, West Bengal",Point,87.963719,24.302357,0,3,1,0,0,0,0
JAQ,Jandrapeta,Unknown,Unknown,Unknown,Point,80.333681,15.809517,0,3,1,0,0,0,0
CLX,Chirala,Unknown,Unknown,Unknown,Point,80.353602,15.830755,0,3,1,0,0,0,0
VRVL,Viravalli,Unknown,Unknown,Unknown,Point,80.912201,16.615947,0,4,1,0,0,0,0
KUP,Kup,Punjab,NR,"Kup Khurd, Punjab",Point,75.852845957,30.6007316295,0,3,1,0,0,0,0
CRWL,Chak Rakhwal,Unknown,Unknown,Unknown,Unknown,,,1,4,2,0,0,0,0
LLJ,Lalganj,Uttar Pradesh,NR,"Lalganj, Uttar Pradesh",Point,80.973175,26.172392,0,3,1,0,0,0,0
CKB,Chauth Ka Barwara,Unknown,Unknown,Unknown,Point,76.14905300000001,26.051333,0,3,3,0,0,0,0
CRKR,Chaurakheri,Rajasthan,WCR,"Chaurakher, Rajasthan",Point,77.12201900000001,24.567234000000003,0,4,1,0,0,0,0
DXD,Digod,Rajasthan,WCR,"Kota, Rajasthan",Point,76.01539600000001,25.196344,0,3,1,0,0,0,0
KJME,Kajoragram,West Bengal,ER,"Near Andal, West Bengal",Point,87.18466500000001,23.615327,0,4,1,0,0,0,0
MAE,Matheran,Maharashtra,CR,"Matheran, Maharashtra",Point,73.270911,18.989244,0,3,1,0,0,0,0
MADA,Maonda,Rajasthan,NWR,"State Highway 13, Rajasthan",Point,75.827673,27.809478,0,4,1,0,0,0,0
VRPD,Virapandy Road,Unknown,Unknown,Unknown,Point,78.07458100000001,11.59699,0,4,2,0,1,0,0
KBN,Karbigwan,Unknown,Unknown,Unknown,Point,80.502629,26.200502,0,3,1,0,0,0,0
AUNG,Aung,Unknown,Unknown,Unknown,Point,80.544495,26.16423,0,4,1,0,0,0,0
LNN,Lonand,Maharashtra,CR,"Jn Point Daund /Miraj /Pune, Maharashtra",Point,74.190477,18.040769,0,3,1,0,0,0,0
SLV,Sandalpur,Unknown,Unknown,Unknown,Point,78.19639500000001,26.113488,0,3,1,0,0,0,0
STLI,Sithouli,Unknown,Unknown,Unknown,Point,78.18700399999999,26.145594,0,4,1,0,0,0,0
GWL,Gwalior Jn,Unknown,Unknown,Unknown,Point,78.18229199999999,26.216483,0,3,2,1,0,0,0
RRU,Rayaru,Unknown,Unknown,Unknown,Point,78.12986400000001,26.307454,0,3,1,0,0,0,0
BAO,Banmor,Unknown,Unknown,Unknown,Point,78.0989272,26.355565,0,3,1,0,0,0,0
KXA,Kuanriya,Rajasthan,NWR,"State Highway 12, Rajasthan",Point,74.000153,25.130668,0,3,1,0,0,0,0
NUB,Nurabad,Unknown,Unknown,Unknown,Point,78.078092,26.406044,0,3,1,0,0,0,0
SANK,Sank,Unknown,Unknown,Unknown,Point,78.059751,26.43052,0,4,1,0,0,0,0
MRA,Morena,Unknown,Unknown,Unknown,Point,78.003442,26.500504,0,3,1,0,0,0,0
HET,Hetampur,Unknown,Unknown,Unknown,Point,77.942969,26.611148,0,3,1,0,0,0,0
GHER,Gher,Unknown,Unknown,Unknown,Point,77.950981,26.666953,0,4,1,0,0,0,0
DHO,Dhaulpur,Unknown,Unknown,Unknown,Point,77.90604900000001,26.697592,0,3,1,0,0,0,0
KZB,Kurumbur,Tamil Nadu,SR,"Thoothukudi, Tamil Nadu",Point,78.03964,8.585754999999999,0,3,1,0,0,0,0
NCU,Nallacheruvu,Andhra Pradesh,SCR,"Chennai - Anantpur Rd, Andhra Pradesh",Point,78.17773399999999,14.020565,0,3,1,0,0,0,0
MIA,Mania,Unknown,Unknown,Unknown,Point,77.91964999999999,26.805806,0,3,1,0,0,0,0
JJ,Jajau,Unknown,Unknown,Unknown,Point,77.936725,26.934561,0,2,1,0,0,0,0
BFP,Bilochpura Agra,Unknown,Unknown,Unknown,Point,77.987169,27.202619,0,3,2,0,0,0,0
LWS,Lukwasa,Madhya Pradesh,WCR,"Lukwasa, Madhya Pradesh",Point,77.590102,25.110195,0,3,1,0,0,0,0
RNKA,Runkuta,Unknown,Unknown,Unknown,Point,77.89793499999999,27.22285,0,4,1,0,0,0,0
TKEC,Tuglakabad East Cabin,Unknown,Unknown,Unknown,Point,77.276461,28.547701,0,4,3,0,0,0,0
MALA,Mala,Uttar Pradesh,NER,"Pilibhit, Uttar Pradesh",Point,79.916972,28.592851,0,4,1,0,0,0,0
MBO,Mairabari,Assam,NFR,"Nagaon, Assam",Point,92.421058,26.450839,0,3,1,0,0,0,0
MAA,Maval,Rajasthan,NWR,"National Highway 14, Rajasthan",Point,72.70044,24.432277,0,3,1,0,0,0,0
KWI,Kivarli,Rajasthan,NWR,"Shri Amirgadh, Rajasthan",Point,72.8424186963,24.5405071601,0,3,1,0,0,0,0
SLBN,Salai Banwa,Unknown,Unknown,Unknown,Point,83.00889543950001,24.4212133613,0,4,2,0,0,0,0
DIWR,Diwr,Unknown,Unknown,Unknown,Unknown,,,1,4,1,0,0,0,0
CUKI,Cuki,Unknown,Unknown,Unknown,Unknown,,,1,4,1,0,0,0,0
NKJ,New Katni Jn,Unknown,Unknown,Unknown,Point,80.4204539438,23.8136370394,0,3,3,1,0,0,0
MMM,Mandapam,Tamil Nadu,SR,"National Highway 49, Tamil Nadu",Point,79.157354,9.280516,0,3,1,0,0,0,0
MJHL,Majada Halt,Uttar Pradesh,NR,"Majada Halt, Uttar Pradesh",Point,78.74320900000001,28.461762,0,4,2,0,0,0,0
MLMG,Mallemadugu,Andhra Pradesh,SCR,"Khammam, Andhra Pradesh",Point,80.1605882117,17.3251381906,0,4,1,0,0,0,0
RTGN,Ratangaon,Unknown,Unknown,Unknown,Point,79.8925106329,23.8365760851,0,4,1,0,0,0,0
PTHD,Patohan,Unknown,Unknown,Unknown,Point,80.1904672913,23.9140165085,0,4,1,0,0,0,0
MLSU,Malsailu,Maharashtra,SCR,"Hingoli, Maharashtra",Point,77.1232376385,19.8680489165,0,4,1,0,0,0,0
XX-BDXO,Xx-Bdxo,Unknown,Unknown,Unknown,Unknown,,,1,7,1,0,0,1,0
ABS,Abohar,Punjab,NR,"Abohar, Punjab",Point,74.19568617739999,30.1393834225,0,3,1,0,0,0,0
MONJ,Monglajhora,Assam,NFR,"Dhubri Kochugaon Rd, Assam",Point,89.963309,26.259236,0,4,1,0,0,0,0
MHO,Mahpur,Uttar Pradesh,NER,"Mahpur Bhimapar Marg, Uttar Pradesh",Point,83.246984,25.605166,0,3,1,0,0,0,0
GSPR,Gosalpur,Madhya Pradesh,WCR,"Jabalpur, Madhya Pradesh",Point,80.059225,23.381806,0,4,1,0,0,0,0
MML,Madan Mahal,Madhya Pradesh,WCR,"Jabalpur, Madhya Pradesh",Point,79.920425,23.159475,0,3,2,0,0,0,0
MLP,Mallapur,Karnataka,SWR,"State Highway 30, Karnataka",Point,75.610219,15.672447,0,3,1,0,0,0,0
ABW,Abutara Halt,West Bengal,NFR,"Dinhata, West Bengal",Point,89.5868746,26.0707762,0,3,2,0,0,0,0
VGL,Vaghli,Unknown,Unknown,Unknown,Point,75.074337,20.522649,0,3,1,0,0,0,0
MGB,Mudigubba,Andhra Pradesh,SCR,"Mudigubba, Andhra Pradesh",Point,77.994996,14.349934,0,3,1,0,0,0,0
MKSR,Mokalsar,Rajasthan,NWR,"Mokalsar, Rajasthan",Point,72.5180445245,25.625350216,0,4,1,0,0,0,0
MYK,Mayakonda,Karnataka,SWR,"State Highway 47, Karnataka",Point,76.08138100000001,14.284214,0,3,1,0,0,0,0
DKZ,Delhi Kishanganj,Delhi Nct,NR,"Sarai Rohilla, Delhi Nct",Point,77.201256,28.664732,0,3,2,0,0,0,0
MORA,Moraiya,Gujarat,WR,"National Highway 8A, Gujarat",Point,72.454814,22.946834,0,4,1,0,0,0,0
KRZ,Kharawar,Haryana,NR,"Kharawar, Haryana",Point,76.681044,28.83154,0,3,1,0,0,0,0
MKDD,Mukundwadi Halt,Maharashtra,SCR,"Aurangabad, Maharashtra",Point,75.367553,19.859544,0,4,2,0,0,0,0
ABX,Ambari,Maharashtra,SCR,"Kinwat, Maharashtra",Point,78.2166847791,19.6893606972,0,3,1,0,0,0,0
BQT,Baktar Nagar,Unknown,Unknown,Unknown,Point,87.15689900000001,23.589945,0,3,2,0,0,0,0
RNG,Raniganj,Unknown,Unknown,Unknown,Point,87.11698,23.602851,0,3,1,0,0,0,0
NMC,Nimcha,Unknown,Unknown,Unknown,Point,87.090288,23.626716,0,3,1,0,0,0,0
KPK,Kalipahari,Unknown,Unknown,Unknown,Point,87.01593,23.6652,0,3,1,0,0,0,0
ASNE,Asansol East,Unknown,Unknown,Unknown,Point,86.991176,23.686432,0,4,2,0,0,0,0
ASN,Asansol Jn,Unknown,Unknown,Unknown,Point,86.975152,23.691441,0,3,2,1,0,0,0
BCQ,Barachak,Unknown,Unknown,Unknown,Point,86.92813299999999,23.706726,0,3,1,0,0,0,0
MIAL,Milaoli,Madhya Pradesh,NCR,"National Highway 3, Madhya Pradesh",Point,78.120963,26.296423,0,4,1,0,0,0,0
ZARP,Zarap,Maharashtra,KR,"Sindhudurg, Maharashtra",Point,73.734105,15.94768,0,4,1,0,0,0,0
MGI,Manigachi,Bihar,ECR,"Darbhanga, Bihar",Point,86.146605,26.213719,0,3,1,0,0,0,0
MHN,Mahanadi,West Bengal,NFR,"Pankhabari Rd, West Bengal",Point,88.318628,26.882301,0,3,1,0,0,0,0
MKRD,Machhakunda,Orissa,ECOR,"Padwa Rd, Orissa",Point,82.666955,18.566875,0,4,1,0,0,0,0
MHI,Manihari,Bihar,NFR,"Manihari Railway Station, Bihar",Point,87.6197250085,25.343215469,0,3,1,0,0,0,0
HLG,Hillgrove,Tamil Nadu,SR,"Nilgiris, Tamil Nadu",Unknown,,,1,3,1,0,0,0,0
TOU,Telaprolu,Unknown,Unknown,Unknown,Point,80.890556,16.598822000000002,0,3,1,0,0,0,0
MDKD,Madhukunda,West Bengal,SER,"Barakar, West Bengal",Point,86.869091,23.62663,0,4,1,0,0,0,0
PMPR,Pampore,Unknown,Unknown,Unknown,Point,80.4835424152,26.2451000771,0,4,1,0,0,0,0
MRJ,Miraj Jn,Maharashtra,CR,"Maniknagar Bypass, Maharashtra",Point,74.638839,16.819946,0,3,2,1,0,0,0
BHA,Bhandai,Unknown,Unknown,Unknown,Point,77.96680748,27.06906445,0,3,1,0,0,0,0
MNWL,Manwal,Jammu And Kashmir,NR,"Jandrah, Jammu And Kashmir",Point,75.13222499999999,32.769105,0,4,1,0,0,0,0
AGC,Agra Cantt,Unknown,Unknown,Unknown,Point,77.990153,27.157992,0,3,2,0,0,0,0
RKM,Raja Ki Mandi,Unknown,Unknown,Unknown,Point,77.996613,27.193811,0,3,3,0,0,0,0
KXM,Kitham,Unknown,Unknown,Unknown,Point,77.817054,27.253709,0,3,1,0,0,0,0
FHT,Farah Town,Unknown,Unknown,Unknown,Point,77.75808599999999,27.318183,0,3,2,0,0,0,0
MDVL,Mandavalli,Andhra Pradesh,SCR,"Mandavalli, Andhra Pradesh",Point,81.1607440393,16.518809308199998,0,4,1,0,0,0,0
FAR,Farah,Unknown,Unknown,Unknown,Point,77.743659,27.334474,0,3,1,0,0,0,0
CPLE,Chinpai,West Bengal,ER,"National Highway 60, West Bengal",Point,87.46063699999999,23.839677,0,4,1,0,0,0,0
BAD,Baad,Unknown,Unknown,Unknown,Point,77.68965184,27.3959406,0,3,1,0,0,0,0
VRBD,Vrindaban Road,Unknown,Unknown,Unknown,Point,77.622835,27.555461,0,4,2,0,1,0,0
AJH,Ajhai,Unknown,Unknown,Unknown,Point,77.55842299999999,27.63615,0,3,1,0,0,0,0
CHJ,Chata,Unknown,Unknown,Unknown,Point,77.502978,27.711992,0,3,1,0,0,0,0
KSV,Kosi Kalan,Unknown,Unknown,Unknown,Point,77.445999,27.788551,0,3,2,0,0,0,0
BNCR,Banchari,Unknown,Unknown,Unknown,Point,77.362553,27.953085,0,4,1,0,0,0,0
MJNL,Majri Nangal,Rajasthan,NWR,"State Highway 52, Rajasthan",Point,76.554869,28.011997,0,4,2,0,0,0,0
DSPT,Danishpet,Unknown,Unknown,Unknown,Point,78.1382563446,11.8589191624,0,4,1,0,0,0,0
SHLK,Sholaka,Unknown,Unknown,Unknown,Point,77.360583,27.973644,0,4,1,0,0,0,0
PWL,Palwal,Unknown,Unknown,Unknown,Point,77.34223200000001,28.151841,0,3,1,0,0,0,0
AST,Asaoti,Unknown,Unknown,Unknown,Point,77.323569,28.250878,0,3,1,0,0,0,0
PYLA,Piyala Block Hut,Unknown,Unknown,Unknown,Point,77.317824,28.288129,0,4,3,0,0,0,0
BVH,Ballabgarh,Unknown,Unknown,Unknown,Point,77.312775968,28.3408609239,0,3,1,0,0,0,0
TNT,Tinnappatti,Unknown,Unknown,Unknown,Point,78.09880299999999,11.812422,0,3,1,0,0,0,0
KPPR,Karuppur,Unknown,Unknown,Unknown,Point,78.090379,11.724176,0,4,1,0,0,0,0
FDN,Faridabad New Town,Unknown,Unknown,Unknown,Point,77.30936799999999,28.376248,0,3,3,0,0,0,0
TKDC,Tuglakabad Cabin,Unknown,Unknown,Unknown,Point,77.303032,28.458853,0,4,2,0,0,0,0
TKD,Tuglakabad,Unknown,Unknown,Unknown,Point,77.294046,28.511963,0,3,1,0,0,0,0
MIN,Mihinpurwa,Uttar Pradesh,NER,"Mihinpurwa, Uttar Pradesh",Point,81.38446715209999,28.0273441203,0,3,1,0,0,0,0
MME,Mul Marora,Maharashtra,SECR,"Mul, Maharashtra",Point,79.65827900000001,20.053466,0,3,2,0,0,0,0
MDPB,Madhopur Punjab,Punjab,NR,"Madhopur, Punjab",Point,75.594728,32.359168000000004,0,4,2,0,0,0,0
GILA,Ghiala,Punjab,NR,"Mdr 42, Punjab",Point,75.64393899999999,32.151615,0,4,1,0,0,0,0
MEX,Mukerian,Punjab,NR,"Mukerian, Punjab",Point,75.61183799999999,31.941873,0,3,1,0,0,0,0
MLC,Malkisar,Rajasthan,NWR,"Bikaner, Rajasthan",Point,73.862645,28.654232,0,3,1,0,0,0,0
KVJ,Keshavganj,Rajasthan,NWR,"Jawai Bandh, Rajasthan",Point,73.07132899999999,24.856164,0,3,1,0,0,0,0
NEMA,Nema Halt,Bihar,?,"National Highway 22, Bihar",Point,85.0722485132,25.4095922854,0,4,2,0,0,0,0
MV,Mayiladuturai Jn,Tamil Nadu,SR,"Mayiladuthurai, Tamil Nadu",Point,79.62868,11.095237,0,2,2,1,0,0,0
NILE,Nimtita,West Bengal,ER,"Nh-34, West Bengal",Point,88.00764,24.625338,0,4,1,0,0,0,0
BLRD,Bala Road,Gujarat,WR,"State Highway 19, Gujarat",Point,71.703754,22.80462,0,4,2,0,1,0,0
MRTY,Murti,Maharashtra,SCR,"State Highway 169, Maharashtra",Point,76.59157300000001,18.681887,0,4,1,0,0,0,0
MCJ,Manjattidal,Tamil Nadu,SR,"Mela Kalkandar Kottai Tiruchchirappalli 620011, Tamil Nadu",Point,78.731401,10.792057,0,3,1,0,0,0,0
VG,Viramgam Jn,Unknown,Unknown,Unknown,Point,72.052968,23.129098,0,2,2,1,0,0,0
RHNE,Rohini,Unknown,Unknown,Unknown,Point,74.859800722,20.3628714458,0,4,1,0,0,0,0
XSK,Sokali,Unknown,Unknown,Unknown,Point,72.09033854249999,23.1031879212,0,3,1,0,0,0,0
JKA,Jakhvada,Unknown,Unknown,Unknown,Point,72.1353813153,23.0872076126,0,3,1,0,0,0,0
VCN,Virochannagar,Unknown,Unknown,Unknown,Point,72.1961836121,23.0784842293,0,3,1,0,0,0,0
TGR2,Block And Catch Siding Cabine No.2,Unknown,Unknown,Unknown,Point,73.499954,19.701406,0,4,6,0,0,0,1
MZH,Mauhari,Madhya Pradesh,SECR,"Amarkantak Rd, Madhya Pradesh",Point,81.769465,23.118661000000003,0,3,1,0,0,0,0
MVD,Mulvad,Karnataka,SWR,"Bijapur, Karnataka",Point,75.746926,16.620372,0,3,1,0,0,0,0
NDV,Nidvanda,Karnataka,SWR,"Nh 207, Karnataka",Point,77.2731255127,13.245141951,0,3,1,0,0,0,0
CE,Chharodi,Unknown,Unknown,Unknown,Point,72.2509186072,23.0491235176,0,2,1,0,0,0,0
MRHA,Murahara,Bihar,?,"Murahara, Bihar",Point,86.9345261145,24.9133804384,0,4,1,0,0,0,0
WSE,Vasan Iyawa,Unknown,Unknown,Unknown,Point,72.3131250098,23.0265576118,0,3,2,0,0,0,0
NANR,Naranpur,Orissa,ECOR,"Naranpur Railway Station, Orissa",Point,85.63786800000001,21.617209,0,4,1,0,0,0,0
SPBK,Spbk,Unknown,Unknown,Unknown,Unknown,,,1,4,1,0,0,0,0
SAU,Sanand,Unknown,Unknown,Unknown,Point,72.3847494653,23.0242158216,0,3,1,0,0,0,0
GGM,Gora Ghuma,Unknown,Unknown,Unknown,Point,72.454405,23.038848,0,3,2,0,0,0,0
ABD,Ambli Road,Unknown,Unknown,Unknown,Point,72.494044,23.05437,0,3,2,0,1,0,0
CLDY,Chandlodiya,Unknown,Unknown,Unknown,Point,72.543606,23.074516000000003,0,4,1,0,0,0,0
NDH,Nindhar Benar,Rajasthan,NWR,"Benad Rd, Rajasthan",Point,75.7290964111,27.0038817098,0,3,2,0,0,0,0
KOTA,Kota Jn,Unknown,Unknown,Unknown,Point,75.8805,25.223553,0,4,2,1,0,0,0
SBTF,Sabarmati F Cabin,Unknown,Unknown,Unknown,Point,72.57010600000001,23.085912,0,4,3,0,0,0,0
MTH,Mataundh,Uttar Pradesh,NCR,"National Highway 76, Uttar Pradesh",Point,80.148507,25.418978,0,3,1,0,0,0,0
NAD,Nagda Jn,Unknown,Unknown,Unknown,Point,75.41249099999999,23.45592,0,3,2,1,0,0,0
KRSA,Kharsaliya,Unknown,Unknown,Unknown,Point,73.55448093439999,22.7050879399,0,4,1,0,0,0,0
DRL,Derol,Unknown,Unknown,Unknown,Point,73.462158,22.630205,0,3,1,0,0,0,0
NDY,Nandi Halt,Karnataka,SWR,"Nandi, Karnataka",Point,77.71248600000001,13.384142,0,3,2,0,0,0,0
BRC,Vadodara Jn,Unknown,Unknown,Unknown,Point,73.181065,22.310756,0,3,2,1,0,0,0
BKRL,Bakrol,Unknown,Unknown,Unknown,Point,73.4192042773,22.5881026822,0,4,1,0,0,0,0
TNGR,Thonganur,Unknown,Unknown,Unknown,Point,78.358665,12.08227,0,4,1,0,0,0,0
BDY,Buddireddippati,Unknown,Unknown,Unknown,Point,78.3127518,12.04465861,0,3,1,0,0,0,0
BQI,Bommidi,Unknown,Unknown,Unknown,Point,78.2462805359,11.984698435,0,3,1,0,0,0,0
LCR,Lokur,Unknown,Unknown,Unknown,Point,78.174049,11.927787,0,3,1,0,0,0,0
MZQ,Majgaon Assam,Assam,NFR,"National Highway 31, Assam",Point,90.574137,26.430697,0,3,2,0,0,0,0
CPN,Champaner Rd Jn,Unknown,Unknown,Unknown,Point,73.393378,22.541916,0,3,3,1,0,0,0
LAN,Lotana,Unknown,Unknown,Unknown,Point,73.363557,22.523268,0,3,1,0,0,0,0
SMLA,Samlaya Jn,Unknown,Unknown,Unknown,Point,73.302104,22.483966,0,4,2,1,0,0,0
AIR,Alindra Road,Unknown,Unknown,Unknown,Point,73.239854,22.440575,0,3,2,0,1,0,0
PIO,Pilol,Unknown,Unknown,Unknown,Point,73.186675,22.39641,0,3,1,0,0,0,0
MQX,Meralgram,Jharkhand,ECR,"Garhwa, Jharkhand",Point,83.70963400000001,24.19691,0,3,1,0,0,0,0
CYI,Chhayapuri,Unknown,Unknown,Unknown,Point,73.179698,22.388284,0,3,1,0,0,0,0
MYE,Mandhali,Punjab,NR,"Mandhali, Punjab",Point,75.831855,31.204703,0,3,1,0,0,0,0
SRWN,Saraswatinagar,Unknown,Unknown,Unknown,Point,81.603905,21.251382,0,4,1,0,0,0,0
MWF,Magardaha,Uttar Pradesh,ECR,"Obra, Uttar Pradesh",Point,82.905844,24.388753,0,3,1,0,0,0,0
MFQ,Mahroi,Madhya Pradesh,WCR,"State Highway 10, Madhya Pradesh",Point,80.919501,23.951414,0,3,1,0,0,0,0
LEK,Lakhakhera,Madhya Pradesh,WCR,"Lakhakhera, Madhya Pradesh",Point,80.574139,23.7639,0,3,1,0,0,0,0
NDM,Nidamanuru,Andhra Pradesh,SCR,"Vijayawada, Andhra Pradesh",Point,80.730551,16.507237,0,3,1,0,0,0,0
MTR,Motipur,Bihar,ECR,"National Highway 28, Bihar",Point,85.1681972229,26.257038721,0,3,1,0,0,0,0
MRLI,Murli Halt,Jharkhand,ER,"Pakur, Jharkhand",Point,87.77319899999999,25.017163,0,4,2,0,0,0,0
MWRN,Madwarani,Chhattisgarh,SECR,"Janjgir-Champa, Chhattisgarh",Point,82.711553,22.165407,0,4,1,0,0,0,0
DDAC,Ddac,Unknown,Unknown,Unknown,Unknown,,,1,4,1,0,0,0,0
XX-ANK,Xx-Ank,Unknown,Unknown,Unknown,Unknown,,,1,6,1,0,0,1,0
RXM,Rooma,Unknown,Unknown,Unknown,Point,80.43035699999999,26.35704,0,3,1,0,0,0,0
NIRA,Nira,Maharashtra,CR,"Satara, Maharashtra",Point,74.20908244200001,18.1049649229,0,4,1,0,0,0,0
HALT,Halt,Unknown,Unknown,Unknown,Unknown,,,1,4,1,0,0,0,0
ULT,Kulti,Unknown,Unknown,Unknown,Point,86.84886999999999,23.737816,0,3,1,0,0,0,0
MTV,Matalkunta,Andhra Pradesh,SCR,"Telangana Region, Andhra Pradesh",Point,77.56294000000001,17.768291,0,3,1,0,0,0,0
BRR,Barakar,Unknown,Unknown,Unknown,Point,86.818859,23.7416829,0,3,1,0,0,0,0
KMME,Kumardubi,Unknown,Unknown,Unknown,Point,86.794065,23.747453,0,4,1,0,0,0,0
MMU,Mugma,Unknown,Unknown,Unknown,Point,86.747614,23.751414,0,3,1,0,0,0,0
KAO,Kalubathan,Unknown,Unknown,Unknown,Point,86.661294,23.758149,0,3,1,0,0,0,0
PKA,Pradhankhunta,Unknown,Unknown,Unknown,Point,86.515977,23.77259,0,3,1,0,0,0,0
MSTH,Misrikh Tirath,Uttar Pradesh,NR,"Sitapur, Uttar Pradesh",Point,80.530303,27.422484,0,4,2,0,0,0,0
MRIJ,Murliganj,Bihar,ECR,"Murliganj, Bihar",Point,87.000446,25.888506,0,4,1,0,0,0,0
DOKM,Dokra Halt,Unknown,Unknown,Unknown,Point,86.480808,23.782884,0,4,2,0,0,0,0
DHN,Dhanbad Jn,Unknown,Unknown,Unknown,Point,86.428956,23.790966,0,3,2,1,0,0,0
MGWN,Mahgawan Halt,Uttar Pradesh,NR,"Nawab Yousuf Rd, Uttar Pradesh",Point,82.69625099999999,25.817256,0,4,2,0,0,0,0
DDD,Dhondha Dih,Uttar Pradesh,NER,"Mdr 94E, Uttar Pradesh",Point,83.79552,25.672848,0,3,2,0,0,0,0
KHED,Khed,Maharashtra,KR,"Khed, Maharashtra",Point,73.40881499999999,17.712059,0,4,1,0,0,0,0
AT,Asnoti,Karnataka,KR,"Uttara Kannada, Karnataka",Point,74.147683,14.876286,0,2,1,0,0,0,0
MTM,Machilipatnam,Andhra Pradesh,SCR,"Machilipatnam, Andhra Pradesh",Point,81.137763,16.171258,0,3,1,0,0,0,0
JN,Jhund,Unknown,Unknown,Unknown,Point,71.936146626,23.1606089618,0,2,1,0,0,0,0
SADL,Sadla,Unknown,Unknown,Unknown,Point,71.850678,23.134597,0,4,1,0,0,0,0
BDI,Bhadli,Unknown,Unknown,Unknown,Point,75.672912326,21.0236632507,0,3,1,0,0,0,0
TRW,Tarsod,Unknown,Unknown,Unknown,Point,75.63321499999999,21.025557000000003,0,3,1,0,0,0,0
OSA,Ausa Road,Maharashtra,CR,"State Highway 77, Maharashtra",Point,76.4079921729,18.3772296262,0,3,2,0,1,0,0
KJ,Kajgaon,Unknown,Unknown,Unknown,Point,75.140405,20.573753,0,2,1,0,0,0,0
NMD,Nomoda,Rajasthan,WCR,"Mdr 111, Rajasthan",Point,76.57945000000001,26.280074,0,3,1,0,0,0,0
HDGR,Hadgaon Road,Maharashtra,SCR,"Nanded, Maharashtra",Point,77.722863,19.332339,0,4,2,0,1,0,0
PRJ,Prantij,Gujarat,WR,"National Highway 8, Gujarat",Point,72.862688,23.439324000000003,0,3,1,0,0,0,0
CSN,Chalisgaon Jn,Unknown,Unknown,Unknown,Point,74.999049,20.464109,0,3,2,1,0,0,0
BRGZ,Vadodara E Cabin,Unknown,Unknown,Unknown,Point,73.159395,22.363671,0,4,3,0,0,0,0
NRV,Nariyar,Bihar,ECR,"Nariyaar, Bihar",Point,85.217642,26.240376,0,3,1,0,0,0,0
NRY,Nyoriya Husenpur,Uttar Pradesh,NER,"Neoria Husainpur, Uttar Pradesh",Point,79.88966099999999,28.734528,0,3,2,0,0,0,0
PPF,Piplaj,Rajasthan,NWR,"Beawar, Rajasthan",Point,74.377466,26.164809,0,3,1,0,0,0,0
APA,Amarpura,Rajasthan,NWR,"Kharwa, Rajasthan",Point,74.249302,26.110973,0,3,1,0,0,0,0
NUQ,Nagar Untari,Jharkhand,ECR,"Garhwa, Jharkhand",Point,83.51416499999999,24.285735,0,3,2,0,0,0,0
KSE,Kosad,Unknown,Unknown,Unknown,Point,72.86573000000001,21.255892,0,3,1,0,0,0,0
SBC,Bangalore City Jn,Karnataka,SWR,"Bengaluru, Karnataka",Point,77.56808299999999,12.977595,0,3,3,1,0,0,0
TLD,Tilda,Unknown,Unknown,Unknown,Point,81.794586,21.550734,0,3,1,0,0,0,0
GED,Guledagudda Rd,Karnataka,SWR,"Sh 44, Karnataka",Point,75.69565899999999,16.069516,0,3,2,0,0,0,0
NBL,Nimbal,Karnataka,SWR,"Bijapur, Karnataka",Point,75.859907,17.118384,0,3,1,0,0,0,0
NVG,Nawagaon,Madhya Pradesh,CR,"Nayagaon, Madhya Pradesh",Point,78.436386,22.088704,0,3,1,0,0,0,0
NIL,Nilambur Road,Kerala,SR,"Nilambur, Kerala",Point,76.254779,11.278805,0,3,2,0,1,0,0
NOMD,Noamundi,Jharkhand,SER,"National Highway 215, Jharkhand",Point,85.513684,22.15311,0,4,1,0,0,0,0
ACH,Achalganj,Uttar Pradesh,NR,"Bithar, Uttar Pradesh",Point,80.54541499999999,26.444642,0,3,1,0,0,0,0
OSRA,Osra,Madhya Pradesh,WR,"Madhya Pradesh, Madhya Pradesh",Point,75.77929449999999,23.1782623,0,4,1,0,0,0,0
PAGM,Pennada Agraharam,Andhra Pradesh,SCR,"West Godavari, Andhra Pradesh",Point,81.577652,16.541296,0,4,2,0,0,0,0
NLN,Nailalung,Assam,NFR,"Tv Centre Road, Assam",Point,93.3888097504,25.7743785055,0,3,1,0,0,0,0
KDY,Kettandapatti,Unknown,Unknown,Unknown,Point,78.57149100000001,12.626458,0,3,1,0,0,0,0
XX-GTLB,Xx-Gtlb,Unknown,Unknown,Unknown,Unknown,,,1,7,1,0,0,1,0
UGD,Uppugunduru,Unknown,Unknown,Unknown,Point,80.194463,15.650668,0,3,1,0,0,0,0
XX-TNGC,Xx-Tngc,Unknown,Unknown,Unknown,Unknown,,,1,7,1,0,0,1,0
XX-HPTB,Xx-Hptb,Unknown,Unknown,Unknown,Unknown,,,1,7,1,0,0,1,0
CJM,Chinna Ganjam,Unknown,Unknown,Unknown,Point,80.236773,15.689502,0,3,2,0,0,0,0
KVDU,Kadavakuduru,Unknown,Unknown,Unknown,Point,80.2572977045,15.722540512,0,4,1,0,0,0,0
OTN,Oating,Assam,NFR,"National Highway 39, Assam",Point,93.9872737866,26.429808896500003,0,3,1,0,0,0,0
NZR,Nazira,Assam,NFR,"Nazira Ali, Assam",Point,94.72848,26.905961,0,3,1,0,0,0,0
NMN,Namanasamudram,Tamil Nadu,SR,"Namunasamudiran, Tamil Nadu",Point,78.777507,10.327487,0,3,1,0,0,0,0
NPU,Nadiapur,Tripura,NFR,"Nadiapur, Tripura",Point,92.204092,24.385641000000003,0,3,1,0,0,0,0
NNX,Nanauta,Uttar Pradesh,NR,"Mdr 2W, Uttar Pradesh",Point,77.442397,29.712202,0,3,1,0,0,0,0
MTJ,Mathura Jn,Unknown,Unknown,Unknown,Point,77.67311699999999,27.480145,0,3,2,1,0,0,0
ITRN,Itwari Jn (Ng),Unknown,Unknown,Unknown,Point,79.118302,21.156859,0,4,3,1,0,0,0
BTSR,Bhuteshwar,Unknown,Unknown,Unknown,Point,77.66784,27.50137,0,4,1,0,0,0,0
HDL,Hodal,Unknown,Unknown,Unknown,Point,77.38869,27.886147,0,3,1,0,0,0,0
OKA,Okhla,Unknown,Unknown,Unknown,Point,77.264825,28.559332,0,3,1,0,0,0,0
OEL,Oel,Uttar Pradesh,NER,"Oel, Uttar Pradesh",Point,80.74816,27.819798,0,3,1,0,0,0,0
